{"generated": "2026-04-16T11:16:09.019232+00:00", "sources": {"easypark": 1893, "parkster": 904, "parkering_gbg": 3558}, "total": 6355, "spots": [{"id": "ep_80001027", "name": "800 Axel Adlers Gata", "lat": 57.647989, "lon": 11.933171, "price_sek_hr": 6.0, "price_text": "6 kr/tim 8-22 alla dagar, maxtaxa 30 kr/dag", "type": "other", "source": "easypark", "operator": "Göteborgs stads parkeringsaktiebolag", "area_type_raw": "NPAL", "status": "ACTIVE"}, {"id": "ep_80001026", "name": "800 Axel Adlers Gata", "lat": 57.648761, "lon": 11.93371, "price_sek_hr": 6.0, "price_text": "6 kr/tim 8-22 alla dagar, maxtaxa 30 kr/dag", "type": "other", "source": "easypark", "operator": "Göteborgs stads parkeringsaktiebolag", "area_type_raw": "ON_STREET_POLYGON", "status": "ACTIVE"}, {"id": "ep_80001329", "name": "800 Axel Adlers Gata", "lat": 57.646699, "lon": 11.935535, "price_sek_hr": 6.0, "price_text": "6 kr/tim 8-22 alla dagar, maxtaxa 30 kr/dag", "type": "other", "source": "easypark", "operator": "Göteborgs stads parkeringsaktiebolag", "area_type_raw": "ON_STREET_POLYGON", "status": "ACTIVE"}, {"id": "ep_80001414", "name": "800 Frans Perssons Väg", "lat": 57.677628, "lon": 12.025672, "price_sek_hr": 6.0, "price_text": "6 kr/tim 8-22 alla dagar, maxtaxa 30 kr/dag", "type": "other", "source": "easypark", "operator": "Göteborgs stads parkeringsaktiebolag", "area_type_raw": "ON_STREET_POLYGON", "status": "ACTIVE"}, {"id": "ep_80001413", "name": "800 Korndalsvägen", "lat": 57.675878, "lon": 12.026519, "price_sek_hr": 6.0, "price_text": "6 kr/tim 8-22 alla dagar, maxtaxa 30 kr/dag", "type": "other", "source": "easypark", "operator": "Göteborgs stads parkeringsaktiebolag", "area_type_raw": "ON_STREET_POLYGON", "status": "ACTIVE"}, {"id": "ep_80100750", "name": "801 Alfhemsgatan", "lat": 57.692221, "lon": 11.95019, "price_sek_hr": 34.0, "price_text": "34 kr/tim 8-22 alla dagar. Övrig tid: 2 kr/tim P-förbud fredagar klockan 08.00 - 10.00 udda veckor.", "type": "other", "source": "easypark", "operator": "Göteborgs stads parkeringsaktiebolag", "area_type_raw": "NPAL", "status": "ACTIVE"}, {"id": "ep_80101839", "name": "801 Alfhemsgatan", "lat": 57.709456, "lon": 11.983338, "price_sek_hr": 34.0, "price_text": "34 kr/tim 8-22 alla dagar. Övrig tid: 2 kr/tim P-förbud fredagar klockan 08.00 - 10.00 udda veckor.", "type": "other", "source": "easypark", "operator": "Göteborgs stads parkeringsaktiebolag", "area_type_raw": "ON_STREET_POLYGON", "status": "ACTIVE"}, {"id": "ep_80100440", "name": "801 Andra Långgatan", "lat": 57.699075, "lon": 11.947912, "price_sek_hr": 34.0, "price_text": "34 kr/tim 8-22 alla dagar. Övrig tid: 2 kr/tim P-förbud måndagar klockan 08.00 - 10.00.", "type": "other", "source": "easypark", "operator": "Göteborgs stads parkeringsaktiebolag", "area_type_raw": "ON_STREET_POLYGON", "status": "ACTIVE"}, {"id": "ep_80100444", "name": "801 Andra Långgatan", "lat": 57.698843, "lon": 11.945166, "price_sek_hr": 34.0, "price_text": "34 kr/tim 8-22 alla dagar. Övrig tid: 2 kr/tim P-förbud måndagar klockan 08.00 - 10.00.", "type": "other", "source": "easypark", "operator": "Göteborgs stads parkeringsaktiebolag", "area_type_raw": "ON_STREET_POLYGON", "status": "ACTIVE"}, {"id": "ep_80101814", "name": "801 Andra Långgatan", "lat": 57.703444, "lon": 11.957738, "price_sek_hr": 34.0, "price_text": "34 kr/tim 8-22 alla dagar. Övrig tid: 2 kr/tim P-förbud måndagar klockan 08.00 - 10.00.", "type": "other", "source": "easypark", "operator": "Göteborgs stads parkeringsaktiebolag", "area_type_raw": "NPAL", "status": "ACTIVE"}, {"id": "ep_80101602", "name": "801 Arkivgatan", "lat": 57.693931, "lon": 11.953488, "price_sek_hr": 34.0, "price_text": "34 kr/tim 8-22 alla dagar. Övrig tid: 2 kr/tim P-förbud torsdagar klockan 02.00 - 07.00.", "type": "other", "source": "easypark", "operator": "Göteborgs stads parkeringsaktiebolag", "area_type_raw": "ON_STREET_POLYGON", "status": "ACTIVE"}, {"id": "ep_80102107", "name": "801 Arkivgatan", "lat": 57.697835, "lon": 11.976743, "price_sek_hr": 34.0, "price_text": "34 kr/tim 8-22 alla dagar. Övrig tid: 2 kr/tim", "type": "other", "source": "easypark", "operator": "Göteborgs stads parkeringsaktiebolag", "area_type_raw": "NPAL", "status": "ACTIVE"}, {"id": "ep_80102771", "name": "801 Aschebergsgatan", "lat": 57.695573, "lon": 11.971625, "price_sek_hr": 34.0, "price_text": "34 kr/tim 8-22 alla dagar. Övrig tid: 2 kr/tim P-förbud onsdagar klockan 02.00 - 07.00.", "type": "other", "source": "easypark", "operator": "Göteborgs stads parkeringsaktiebolag", "area_type_raw": "ON_STREET_POLYGON", "status": "ACTIVE"}, {"id": "ep_80100506", "name": "801 Aschebergsgatan", "lat": 57.694969, "lon": 11.972419, "price_sek_hr": 34.0, "price_text": "34 kr/tim 8-22 alla dagar. Övrig tid: 2 kr/tim P-förbud onsdagar klockan 02.00 - 07.00.", "type": "other", "source": "easypark", "operator": "Göteborgs stads parkeringsaktiebolag", "area_type_raw": "ON_STREET_POLYGON", "status": "ACTIVE"}, {"id": "ep_80100024", "name": "801 Baldersgatan", "lat": 57.709161, "lon": 11.985577, "price_sek_hr": 34.0, "price_text": "34 kr/tim 8-22 alla dagar. Övrig tid: 2 kr/tim", "type": "other", "source": "easypark", "operator": "Göteborgs stads parkeringsaktiebolag", "area_type_raw": "ON_STREET_POLYGON", "status": "ACTIVE"}, {"id": "ep_80105996", "name": "801 Baldersgatan", "lat": 57.708913, "lon": 11.98641, "price_sek_hr": 34.0, "price_text": "34 kr/tim 8-22 alla dagar. Övrig tid: 2 kr/tim P-förbud tisdagar klockan 02.00 - 07.00 udda veckor.", "type": "other", "source": "easypark", "operator": "Göteborgs stads parkeringsaktiebolag", "area_type_raw": "ON_STREET_POLYGON", "status": "ACTIVE"}, {"id": "ep_80103222", "name": "801 Bellmansgatan", "lat": 57.698465, "lon": 11.963543, "price_sek_hr": 34.0, "price_text": "34 kr/tim 8-22 alla dagar. Övrig tid: 2 kr/tim P-förbud måndagar klockan 08.00 - 10.00.", "type": "other", "source": "easypark", "operator": "Göteborgs stads parkeringsaktiebolag", "area_type_raw": "ON_STREET_POLYGON", "status": "ACTIVE"}, {"id": "ep_80100739", "name": "801 Berzeliigatan", "lat": 57.697786, "lon": 11.980493, "price_sek_hr": 34.0, "price_text": "34 kr/tim 8-22 alla dagar. Övrig tid: 2 kr/tim P-förbud tisdagar klockan 02.00 - 07.00.", "type": "other", "source": "easypark", "operator": "Göteborgs stads parkeringsaktiebolag", "area_type_raw": "ON_STREET_POLYGON", "status": "ACTIVE"}, {"id": "ep_80100514", "name": "801 Brunnsgatan", "lat": 57.693882, "lon": 11.95808, "price_sek_hr": 34.0, "price_text": "34 kr/tim 8-22 alla dagar. Övrig tid: 2 kr/tim P-förbud tisdagar klockan 09.00 - 12.00 udda veckor.", "type": "other", "source": "easypark", "operator": "Göteborgs stads parkeringsaktiebolag", "area_type_raw": "ON_STREET_POLYGON", "status": "ACTIVE"}, {"id": "ep_80100479", "name": "801 Carlandersplatsen", "lat": 57.693416, "lon": 11.986857, "price_sek_hr": 34.0, "price_text": "34 kr/tim 8-22 alla dagar. Övrig tid: 2 kr/tim", "type": "other", "source": "easypark", "operator": "Göteborgs stads parkeringsaktiebolag", "area_type_raw": "ON_STREET_POLYGON", "status": "ACTIVE"}, {"id": "ep_80101425", "name": "801 Carlandersplatsen", "lat": 57.693489, "lon": 11.986839, "price_sek_hr": 34.0, "price_text": "34 kr/tim 8-22 alla dagar. Övrig tid: 2 kr/tim P-förbud tisdagar klockan 09.00 - 12.00 jämna veckor.", "type": "other", "source": "easypark", "operator": "Göteborgs stads parkeringsaktiebolag", "area_type_raw": "ON_STREET_POLYGON", "status": "ACTIVE"}, {"id": "ep_80100476", "name": "801 Carlandersplatsen", "lat": 57.692988, "lon": 11.987485, "price_sek_hr": 34.0, "price_text": "34 kr/tim 8-22 alla dagar. Övrig tid: 2 kr/tim", "type": "other", "source": "easypark", "operator": "Göteborgs stads parkeringsaktiebolag", "area_type_raw": "ON_STREET_POLYGON", "status": "ACTIVE"}, {"id": "ep_80104008", "name": "801 Chalmersgatan", "lat": 57.700437, "lon": 11.97192, "price_sek_hr": 34.0, "price_text": "34 kr/tim 8-22 alla dagar. Övrig tid: 2 kr/tim P-förbud måndagar klockan 08.00 - 10.00.", "type": "other", "source": "easypark", "operator": "Göteborgs stads parkeringsaktiebolag", "area_type_raw": "ON_STREET_POLYGON", "status": "ACTIVE"}, {"id": "ep_80100346", "name": "801 Chalmersgatan", "lat": 57.69827, "lon": 11.975015, "price_sek_hr": 34.0, "price_text": "34 kr/tim 8-22 alla dagar. Övrig tid: 2 kr/tim P-förbud måndagar klockan 08.00 - 10.00.", "type": "other", "source": "easypark", "operator": "Göteborgs stads parkeringsaktiebolag", "area_type_raw": "ON_STREET_POLYGON", "status": "ACTIVE"}, {"id": "ep_80101896", "name": "801 Chalmersgatan", "lat": 57.699515, "lon": 11.973363, "price_sek_hr": 34.0, "price_text": "34 kr/tim 8-22 alla dagar. Övrig tid: 2 kr/tim P-förbud måndagar klockan 08.00 - 10.00.", "type": "other", "source": "easypark", "operator": "Göteborgs stads parkeringsaktiebolag", "area_type_raw": "ON_STREET_POLYGON", "status": "ACTIVE"}, {"id": "ep_80101611", "name": "801 Djupedalsgatan", "lat": 57.695109, "lon": 11.952912, "price_sek_hr": 34.0, "price_text": "34 kr/tim 8-22 alla dagar. Övrig tid: 2 kr/tim P-förbud fredagar klockan 09.00 - 12.00 jämna veckor.", "type": "other", "source": "easypark", "operator": "Göteborgs stads parkeringsaktiebolag", "area_type_raw": "ON_STREET_POLYGON", "status": "ACTIVE"}, {"id": "ep_80100121", "name": "801 Eklandagatan", "lat": 57.699942, "lon": 11.967548, "price_sek_hr": 34.0, "price_text": "34 kr/tim 8-22 alla dagar. Övrig tid: 2 kr/tim P-förbud fredagar klockan 02.00 - 07.00.", "type": "other", "source": "easypark", "operator": "Göteborgs stads parkeringsaktiebolag", "area_type_raw": "ON_STREET_POLYGON", "status": "ACTIVE"}, {"id": "ep_80100445", "name": "801 Eklandagatan", "lat": 57.693931, "lon": 11.98743, "price_sek_hr": 34.0, "price_text": "34 kr/tim 8-22 alla dagar. Övrig tid: 2 kr/tim P-förbud fredagar klockan 02.00 - 07.00.", "type": "other", "source": "easypark", "operator": "Göteborgs stads parkeringsaktiebolag", "area_type_raw": "NPAL", "status": "ACTIVE"}, {"id": "ep_80100447", "name": "801 Eklandagatan", "lat": 57.693965, "lon": 11.987239, "price_sek_hr": 34.0, "price_text": "34 kr/tim 8-22 alla dagar. Övrig tid: 2 kr/tim P-förbud tisdagar klockan 02.00 - 07.00.", "type": "other", "source": "easypark", "operator": "Göteborgs stads parkeringsaktiebolag", "area_type_raw": "NPAL", "status": "ACTIVE"}, {"id": "ep_80100774", "name": "801 Engelbrektsgatan", "lat": 57.698248, "lon": 11.975927, "price_sek_hr": 34.0, "price_text": "34 kr/tim 8-22 alla dagar. Övrig tid: 2 kr/tim P-förbud torsdagar klockan 02.00 - 07.00.", "type": "other", "source": "easypark", "operator": "Göteborgs stads parkeringsaktiebolag", "area_type_raw": "ON_STREET_POLYGON", "status": "ACTIVE"}, {"id": "ep_80103169", "name": "801 Engelbrektsgatan", "lat": 57.696647, "lon": 11.967179, "price_sek_hr": 34.0, "price_text": "34 kr/tim 8-22 alla dagar. Övrig tid: 2 kr/tim P-förbud torsdagar klockan 02.00 - 07.00.", "type": "other", "source": "easypark", "operator": "Göteborgs stads parkeringsaktiebolag", "area_type_raw": "ON_STREET_POLYGON", "status": "ACTIVE"}, {"id": "ep_80104048", "name": "801 Engelbrektsgatan", "lat": 57.697442, "lon": 11.973893, "price_sek_hr": 34.0, "price_text": "34 kr/tim 8-22 alla dagar. Övrig tid: 2 kr/tim P-förbud torsdagar klockan 02.00 - 07.00.", "type": "other", "source": "easypark", "operator": "Göteborgs stads parkeringsaktiebolag", "area_type_raw": "ON_STREET_POLYGON", "status": "ACTIVE"}, {"id": "ep_80104102", "name": "801 Engelbrektsgatan", "lat": 57.70177, "lon": 11.98412, "price_sek_hr": 34.0, "price_text": "34 kr/tim 8-22 alla dagar. Övrig tid: 2 kr/tim", "type": "other", "source": "easypark", "operator": "Göteborgs stads parkeringsaktiebolag", "area_type_raw": "ON_STREET_POLYGON", "status": "ACTIVE"}, {"id": "ep_80100331", "name": "801 Erik Dahlbergsgatan", "lat": 57.699167, "lon": 11.96792, "price_sek_hr": 34.0, "price_text": "34 kr/tim 8-22 alla dagar. Övrig tid: 2 kr/tim P-förbud onsdagar klockan 08.00 - 10.00.", "type": "other", "source": "easypark", "operator": "Göteborgs stads parkeringsaktiebolag", "area_type_raw": "ON_STREET_POLYGON", "status": "ACTIVE"}, {"id": "ep_80100333", "name": "801 Erik Dahlbergsgatan", "lat": 57.699146, "lon": 11.968079, "price_sek_hr": 34.0, "price_text": "34 kr/tim 8-22 alla dagar. Övrig tid: 2 kr/tim P-förbud onsdagar klockan 08.00 - 10.00.", "type": "other", "source": "easypark", "operator": "Göteborgs stads parkeringsaktiebolag", "area_type_raw": "ON_STREET_POLYGON", "status": "ACTIVE"}, {"id": "ep_80100622", "name": "801 Erik Dahlbergsgatan", "lat": 57.697409, "lon": 11.968925, "price_sek_hr": 34.0, "price_text": "34 kr/tim 8-22 alla dagar. Övrig tid: 2 kr/tim P-förbud måndagar klockan 08.00 - 10.00.", "type": "other", "source": "easypark", "operator": "Göteborgs stads parkeringsaktiebolag", "area_type_raw": "ON_STREET_POLYGON", "status": "ACTIVE"}, {"id": "ep_80100903", "name": "801 Erik Dahlbergstrappan", "lat": 57.695163, "lon": 11.971789, "price_sek_hr": 34.0, "price_text": "34 kr/tim 8-22 alla dagar. Övrig tid: 2 kr/tim", "type": "other", "source": "easypark", "operator": "Göteborgs stads parkeringsaktiebolag", "area_type_raw": "ON_STREET_POLYGON", "status": "ACTIVE"}, {"id": "ep_80100462", "name": "801 Fjärde Långgatan", "lat": 57.697817, "lon": 11.948364, "price_sek_hr": 34.0, "price_text": "34 kr/tim 8-22 alla dagar. Övrig tid: 2 kr/tim P-förbud onsdagar klockan 08.00 - 10.00.", "type": "other", "source": "easypark", "operator": "Göteborgs stads parkeringsaktiebolag", "area_type_raw": "ON_STREET_POLYGON", "status": "ACTIVE"}, {"id": "ep_80100464", "name": "801 Fjärde Långgatan", "lat": 57.698028, "lon": 11.95057, "price_sek_hr": 34.0, "price_text": "34 kr/tim 8-22 alla dagar. Övrig tid: 2 kr/tim P-förbud onsdagar klockan 08.00 - 10.00.", "type": "other", "source": "easypark", "operator": "Göteborgs stads parkeringsaktiebolag", "area_type_raw": "ON_STREET_POLYGON", "status": "ACTIVE"}, {"id": "ep_80101536", "name": "801 Fjärde Långgatan", "lat": 57.698423, "lon": 11.943759, "price_sek_hr": 34.0, "price_text": "34 kr/tim 8-22 alla dagar. Övrig tid: 2 kr/tim P-förbud onsdagar klockan 08.00 - 10.00.", "type": "other", "source": "easypark", "operator": "Göteborgs stads parkeringsaktiebolag", "area_type_raw": "ON_STREET_POLYGON", "status": "ACTIVE"}, {"id": "ep_80100354", "name": "801 Fjärde Långgatan", "lat": 57.697757, "lon": 11.944931, "price_sek_hr": 34.0, "price_text": "34 kr/tim 8-22 alla dagar. Övrig tid: 2 kr/tim P-förbud onsdagar klockan 08.00 - 10.00.", "type": "other", "source": "easypark", "operator": "Göteborgs stads parkeringsaktiebolag", "area_type_raw": "ON_STREET_POLYGON", "status": "ACTIVE"}, {"id": "ep_80100599", "name": "801 Folkungagatan", "lat": 57.708897, "lon": 11.984948, "price_sek_hr": 34.0, "price_text": "34 kr/tim 8-22 alla dagar. Övrig tid: 2 kr/tim P-förbud tisdagar klockan 02.00 - 07.00.", "type": "other", "source": "easypark", "operator": "Göteborgs stads parkeringsaktiebolag", "area_type_raw": "NPAL", "status": "ACTIVE"}, {"id": "ep_80100598", "name": "801 Folkungagatan", "lat": 57.708858, "lon": 11.984679, "price_sek_hr": 34.0, "price_text": "34 kr/tim 8-22 alla dagar. Övrig tid: 2 kr/tim P-förbud fredagar klockan 02.00 - 07.00.", "type": "other", "source": "easypark", "operator": "Göteborgs stads parkeringsaktiebolag", "area_type_raw": "NPAL", "status": "ACTIVE"}, {"id": "ep_80100148", "name": "801 Friggagatan", "lat": 57.705194, "lon": 11.99044, "price_sek_hr": 34.0, "price_text": "34 kr/tim 8-22 alla dagar. Övrig tid: 2 kr/tim P-förbud tisdagar klockan 02.00 - 07.00.", "type": "other", "source": "easypark", "operator": "Göteborgs stads parkeringsaktiebolag", "area_type_raw": "NPAL", "status": "ACTIVE"}, {"id": "ep_80101795", "name": "801 Geijersgatan", "lat": 57.697277, "lon": 11.975651, "price_sek_hr": 34.0, "price_text": "34 kr/tim 8-22 alla dagar. Övrig tid: 2 kr/tim P-förbud torsdagar klockan 02.00 - 07.00.", "type": "other", "source": "easypark", "operator": "Göteborgs stads parkeringsaktiebolag", "area_type_raw": "ON_STREET_POLYGON", "status": "ACTIVE"}, {"id": "ep_80100732", "name": "801 Geijersgatan", "lat": 57.697485, "lon": 11.978123, "price_sek_hr": 34.0, "price_text": "34 kr/tim 8-22 alla dagar. Övrig tid: 2 kr/tim P-förbud tisdagar klockan 02.00 - 07.00.", "type": "other", "source": "easypark", "operator": "Göteborgs stads parkeringsaktiebolag", "area_type_raw": "ON_STREET_POLYGON", "status": "ACTIVE"}, {"id": "ep_80100155", "name": "801 Gudmundsgatan", "lat": 57.699877, "lon": 11.993332, "price_sek_hr": 34.0, "price_text": "34 kr/tim 8-22 alla dagar. Övrig tid: 2 kr/tim", "type": "other", "source": "easypark", "operator": "Göteborgs stads parkeringsaktiebolag", "area_type_raw": "ON_STREET_POLYGON", "status": "ACTIVE"}, {"id": "ep_80100521", "name": "801 Götabergsgatan", "lat": 57.697172, "lon": 11.967633, "price_sek_hr": 34.0, "price_text": "34 kr/tim 8-22 alla dagar. Övrig tid: 2 kr/tim", "type": "other", "source": "easypark", "operator": "Göteborgs stads parkeringsaktiebolag", "area_type_raw": "ON_STREET_POLYGON", "status": "ACTIVE"}, {"id": "ep_80103996", "name": "801 Götabergsgatan", "lat": 57.69817, "lon": 11.973878, "price_sek_hr": 34.0, "price_text": "34 kr/tim 8-22 alla dagar. Övrig tid: 2 kr/tim P-förbud måndagar klockan 08.00 - 10.00.", "type": "other", "source": "easypark", "operator": "Göteborgs stads parkeringsaktiebolag", "area_type_raw": "ON_STREET_POLYGON", "status": "ACTIVE"}, {"id": "ep_80102029", "name": "801 Götabergsgatan", "lat": 57.699162, "lon": 11.972204, "price_sek_hr": 34.0, "price_text": "34 kr/tim 8-22 alla dagar. Övrig tid: 2 kr/tim P-förbud måndagar klockan 08.00 - 10.00.", "type": "other", "source": "easypark", "operator": "Göteborgs stads parkeringsaktiebolag", "area_type_raw": "ON_STREET_POLYGON", "status": "ACTIVE"}, {"id": "ep_80103312", "name": "801 Haga Kyrkogata", "lat": 57.695973, "lon": 11.962469, "price_sek_hr": 34.0, "price_text": "34 kr/tim 8-22 alla dagar. Övrig tid: 2 kr/tim", "type": "other", "source": "easypark", "operator": "Göteborgs stads parkeringsaktiebolag", "area_type_raw": "ON_STREET_POLYGON", "status": "ACTIVE"}, {"id": "ep_80101807", "name": "801 Haga Kyrkogata", "lat": 57.696788, "lon": 11.962743, "price_sek_hr": 34.0, "price_text": "34 kr/tim 8-22 alla dagar. Övrig tid: 2 kr/tim P-förbud måndagar klockan 08.00 - 10.00.", "type": "other", "source": "easypark", "operator": "Göteborgs stads parkeringsaktiebolag", "area_type_raw": "ON_STREET_POLYGON", "status": "ACTIVE"}, {"id": "ep_80100577", "name": "801 Haga Kyrkogata", "lat": 57.698044, "lon": 11.962832, "price_sek_hr": 34.0, "price_text": "34 kr/tim 8-22 alla dagar. Övrig tid: 2 kr/tim P-förbud måndagar klockan 08.00 - 10.00.", "type": "other", "source": "easypark", "operator": "Göteborgs stads parkeringsaktiebolag", "area_type_raw": "NPAL", "status": "ACTIVE"}, {"id": "ep_80100220", "name": "801 Hvitfeldtsgatan", "lat": 57.702545, "lon": 11.96107, "price_sek_hr": 34.0, "price_text": "34 kr/tim 8-22 alla dagar. Övrig tid: 2 kr/tim P-förbud tisdagar klockan 08.00 - 10.00 udda veckor.", "type": "other", "source": "easypark", "operator": "Göteborgs stads parkeringsaktiebolag", "area_type_raw": "ON_STREET_POLYGON", "status": "ACTIVE"}, {"id": "ep_80100412", "name": "801 Hvitfeldtsplatsen", "lat": 57.70114, "lon": 11.961422, "price_sek_hr": 34.0, "price_text": "34 kr/tim 8-22 alla dagar. Övrig tid: 2 kr/tim", "type": "other", "source": "easypark", "operator": "Göteborgs stads parkeringsaktiebolag", "area_type_raw": "ON_STREET_POLYGON", "status": "ACTIVE"}, {"id": "ep_80100735", "name": "801 Hökegatan", "lat": 57.715353, "lon": 12.000921, "price_sek_hr": 34.0, "price_text": "34 kr/tim 8-22 alla dagar. Övrig tid: 2 kr/tim", "type": "other", "source": "easypark", "operator": "Göteborgs stads parkeringsaktiebolag", "area_type_raw": "NPAL", "status": "ACTIVE"}, {"id": "ep_80101765", "name": "801 Ingenjörsgatan", "lat": 57.703221, "lon": 11.956993, "price_sek_hr": 34.0, "price_text": "34 kr/tim 8-22 alla dagar. Övrig tid: 2 kr/tim P-förbud fredagar klockan 08.00 - 10.00 jämna veckor.", "type": "other", "source": "easypark", "operator": "Göteborgs stads parkeringsaktiebolag", "area_type_raw": "NPAL", "status": "ACTIVE"}, {"id": "ep_80100265", "name": "801 Johannebergsgatan", "lat": 57.69849, "lon": 11.948063, "price_sek_hr": 34.0, "price_text": "34 kr/tim 8-22 alla dagar. Övrig tid: 2 kr/tim P-förbud tisdagar klockan 09.00 - 12.00 jämna veckor.", "type": "other", "source": "easypark", "operator": "Göteborgs stads parkeringsaktiebolag", "area_type_raw": "ON_STREET_POLYGON", "status": "ACTIVE"}, {"id": "ep_80103915", "name": "801 Kapellgatan", "lat": 57.694598, "lon": 11.973021, "price_sek_hr": 34.0, "price_text": "34 kr/tim 8-22 alla dagar. Övrig tid: 2 kr/tim P-förbud onsdagar klockan 09.00 - 12.00 jämna veckor.", "type": "other", "source": "easypark", "operator": "Göteborgs stads parkeringsaktiebolag", "area_type_raw": "NPAL", "status": "ACTIVE"}, {"id": "ep_80100124", "name": "801 Karl Gustavsgatan", "lat": 57.699708, "lon": 11.966367, "price_sek_hr": 34.0, "price_text": "34 kr/tim 8-22 alla dagar. Övrig tid: 2 kr/tim P-förbud onsdagar klockan 08.00 - 10.00.", "type": "other", "source": "easypark", "operator": "Göteborgs stads parkeringsaktiebolag", "area_type_raw": "ON_STREET_POLYGON", "status": "ACTIVE"}, {"id": "ep_80100120", "name": "801 Karl Gustavsgatan", "lat": 57.699078, "lon": 11.966633, "price_sek_hr": 34.0, "price_text": "34 kr/tim 8-22 alla dagar. Övrig tid: 2 kr/tim P-förbud onsdagar klockan 08.00 - 10.00.", "type": "other", "source": "easypark", "operator": "Göteborgs stads parkeringsaktiebolag", "area_type_raw": "ON_STREET_POLYGON", "status": "ACTIVE"}, {"id": "ep_80100324", "name": "801 Karl Gustavsgatan", "lat": 57.698969, "lon": 11.966603, "price_sek_hr": 34.0, "price_text": "34 kr/tim 8-22 alla dagar. Övrig tid: 2 kr/tim P-förbud onsdagar klockan 08.00 - 10.00.", "type": "other", "source": "easypark", "operator": "Göteborgs stads parkeringsaktiebolag", "area_type_raw": "ON_STREET_POLYGON", "status": "ACTIVE"}, {"id": "ep_80100294", "name": "801 Kaserntorget", "lat": 57.703025, "lon": 11.961472, "price_sek_hr": 34.0, "price_text": "34 kr/tim 8-22 alla dagar. Övrig tid: 2 kr/tim", "type": "other", "source": "easypark", "operator": "Göteborgs stads parkeringsaktiebolag", "area_type_raw": "ON_STREET_POLYGON", "status": "ACTIVE"}, {"id": "ep_80100065", "name": "801 Kastellgatan", "lat": 57.693904, "lon": 11.955366, "price_sek_hr": 34.0, "price_text": "34 kr/tim 8-22 alla dagar. Övrig tid: 2 kr/tim P-förbud onsdagar klockan 09.00 - 12.00 udda veckor.", "type": "other", "source": "easypark", "operator": "Göteborgs stads parkeringsaktiebolag", "area_type_raw": "ON_STREET_POLYGON", "status": "ACTIVE"}, {"id": "ep_80101576", "name": "801 Kastellgatan", "lat": 57.694241, "lon": 11.955324, "price_sek_hr": 34.0, "price_text": "34 kr/tim 8-22 alla dagar. Övrig tid: 2 kr/tim P-förbud fredagar klockan 09.00 - 12.00 jämna veckor.", "type": "other", "source": "easypark", "operator": "Göteborgs stads parkeringsaktiebolag", "area_type_raw": "ON_STREET_POLYGON", "status": "ACTIVE"}, {"id": "ep_80101556", "name": "801 Kastellgatan", "lat": 57.693565, "lon": 11.955409, "price_sek_hr": 34.0, "price_text": "34 kr/tim 8-22 alla dagar. Övrig tid: 2 kr/tim P-förbud onsdagar klockan 09.00 - 12.00 udda veckor.", "type": "other", "source": "easypark", "operator": "Göteborgs stads parkeringsaktiebolag", "area_type_raw": "ON_STREET_POLYGON", "status": "ACTIVE"}, {"id": "ep_80102198", "name": "801 Kastellgatan", "lat": 57.694831, "lon": 11.956025, "price_sek_hr": 34.0, "price_text": "34 kr/tim 8-22 alla dagar. Övrig tid: 2 kr/tim P-förbud fredagar klockan 09.00 - 12.00 jämna veckor.", "type": "other", "source": "easypark", "operator": "Göteborgs stads parkeringsaktiebolag", "area_type_raw": "ON_STREET_POLYGON", "status": "ACTIVE"}, {"id": "ep_80100236", "name": "801 Konstepidemins Väg", "lat": 57.690085, "lon": 11.954131, "price_sek_hr": 34.0, "price_text": "34 kr/tim 8-22 alla dagar. Övrig tid: 2 kr/tim P-förbud torsdagar klockan 02.00 - 07.00.", "type": "other", "source": "easypark", "operator": "Göteborgs stads parkeringsaktiebolag", "area_type_raw": "NPAL", "status": "ACTIVE"}, {"id": "ep_80104367", "name": "801 Kristinelundsgatan", "lat": 57.700326, "lon": 11.977105, "price_sek_hr": 34.0, "price_text": "34 kr/tim 8-22 alla dagar. Övrig tid: 2 kr/tim P-förbud torsdagar klockan 02.00 - 07.00.", "type": "other", "source": "easypark", "operator": "Göteborgs stads parkeringsaktiebolag", "area_type_raw": "NPAL", "status": "ACTIVE"}, {"id": "ep_80104003", "name": "801 Kristinelundsgatan", "lat": 57.699205, "lon": 11.974532, "price_sek_hr": 34.0, "price_text": "34 kr/tim 8-22 alla dagar. Övrig tid: 2 kr/tim", "type": "other", "source": "easypark", "operator": "Göteborgs stads parkeringsaktiebolag", "area_type_raw": "ON_STREET_POLYGON", "status": "ACTIVE"}, {"id": "ep_80102586", "name": "801 Kristinelundsgatan", "lat": 57.699157, "lon": 11.974573, "price_sek_hr": 34.0, "price_text": "34 kr/tim 8-22 alla dagar. Övrig tid: 2 kr/tim P-förbud måndagar klockan 08.00 - 10.00.", "type": "other", "source": "easypark", "operator": "Göteborgs stads parkeringsaktiebolag", "area_type_raw": "ON_STREET_POLYGON", "status": "ACTIVE"}, {"id": "ep_80100623", "name": "801 Kristinelundsgatan", "lat": 57.698787, "lon": 11.973543, "price_sek_hr": 34.0, "price_text": "34 kr/tim 8-22 alla dagar. Övrig tid: 2 kr/tim", "type": "other", "source": "easypark", "operator": "Göteborgs stads parkeringsaktiebolag", "area_type_raw": "ON_STREET_POLYGON", "status": "ACTIVE"}, {"id": "ep_80101867", "name": "801 Kristinelundsgatan", "lat": 57.709195, "lon": 11.982191, "price_sek_hr": 34.0, "price_text": "34 kr/tim 8-22 alla dagar. Övrig tid: 2 kr/tim P-förbud måndagar klockan 08.00 - 10.00.", "type": "other", "source": "easypark", "operator": "Göteborgs stads parkeringsaktiebolag", "area_type_raw": "ON_STREET_POLYGON", "status": "ACTIVE"}, {"id": "ep_80100864", "name": "801 Kungsgatan", "lat": 57.702736, "lon": 11.956883, "price_sek_hr": 34.0, "price_text": "34 kr/tim 8-22 alla dagar. Övrig tid: 2 kr/tim P-förbud fredagar klockan 08.00 - 10.00 jämna veckor.", "type": "other", "source": "easypark", "operator": "Göteborgs stads parkeringsaktiebolag", "area_type_raw": "ON_STREET_POLYGON", "status": "ACTIVE"}, {"id": "ep_80100365", "name": "801 Lasarettsgatan", "lat": 57.703299, "lon": 11.958006, "price_sek_hr": 34.0, "price_text": "34 kr/tim 8-22 alla dagar. Övrig tid: 2 kr/tim P-förbud fredagar klockan 08.00 - 10.00 jämna veckor.", "type": "other", "source": "easypark", "operator": "Göteborgs stads parkeringsaktiebolag", "area_type_raw": "NPAL", "status": "ACTIVE"}, {"id": "ep_80101758", "name": "801 Lasarettsgatan", "lat": 57.703165, "lon": 11.958168, "price_sek_hr": 34.0, "price_text": "34 kr/tim 8-22 alla dagar. Övrig tid: 2 kr/tim P-förbud fredagar klockan 08.00 - 10.00 jämna veckor.", "type": "other", "source": "easypark", "operator": "Göteborgs stads parkeringsaktiebolag", "area_type_raw": "NPAL", "status": "ACTIVE"}, {"id": "ep_80101617", "name": "801 Lilla Risåsgatan", "lat": 57.695453, "lon": 11.953462, "price_sek_hr": 34.0, "price_text": "34 kr/tim 8-22 alla dagar. Övrig tid: 2 kr/tim P-förbud fredagar klockan 09.00 - 12.00 jämna veckor.", "type": "other", "source": "easypark", "operator": "Göteborgs stads parkeringsaktiebolag", "area_type_raw": "NPAL", "status": "ACTIVE"}, {"id": "ep_80101517", "name": "801 Lilla Torget", "lat": 57.705642, "lon": 11.96138, "price_sek_hr": 34.0, "price_text": "34 kr/tim 8-22 alla dagar. Övrig tid: 2 kr/tim P-förbud fredagar klockan 08.00 - 10.00 jämna veckor.", "type": "other", "source": "easypark", "operator": "Göteborgs stads parkeringsaktiebolag", "area_type_raw": "ON_STREET_POLYGON", "status": "ACTIVE"}, {"id": "ep_80101480", "name": "801 Linnégatan", "lat": 57.695445, "lon": 11.951635, "price_sek_hr": 34.0, "price_text": "34 kr/tim 8-22 alla dagar. Övrig tid: 2 kr/tim P-förbud onsdagar klockan 02.00 - 07.00.", "type": "other", "source": "easypark", "operator": "Göteborgs stads parkeringsaktiebolag", "area_type_raw": "ON_STREET_POLYGON", "status": "ACTIVE"}, {"id": "ep_80100611", "name": "801 Linnégatan", "lat": 57.694515, "lon": 11.952272, "price_sek_hr": 34.0, "price_text": "34 kr/tim 8-22 alla dagar. Övrig tid: 2 kr/tim P-förbud torsdagar klockan 02.00 - 07.00.", "type": "other", "source": "easypark", "operator": "Göteborgs stads parkeringsaktiebolag", "area_type_raw": "ON_STREET_POLYGON", "status": "ACTIVE"}, {"id": "ep_80102133", "name": "801 Linnégatan", "lat": 57.694301, "lon": 11.952075, "price_sek_hr": 34.0, "price_text": "34 kr/tim 8-22 alla dagar. Övrig tid: 2 kr/tim P-förbud onsdagar klockan 02.00 - 07.00.", "type": "other", "source": "easypark", "operator": "Göteborgs stads parkeringsaktiebolag", "area_type_raw": "ON_STREET_POLYGON", "status": "ACTIVE"}, {"id": "ep_80101980", "name": "801 Linnégatan", "lat": 57.693474, "lon": 11.952649, "price_sek_hr": 34.0, "price_text": "34 kr/tim 8-22 alla dagar. Övrig tid: 2 kr/tim P-förbud torsdagar klockan 02.00 - 07.00.", "type": "other", "source": "easypark", "operator": "Göteborgs stads parkeringsaktiebolag", "area_type_raw": "ON_STREET_POLYGON", "status": "ACTIVE"}, {"id": "ep_80102158", "name": "801 Linnégatan", "lat": 57.693422, "lon": 11.95239, "price_sek_hr": 34.0, "price_text": "34 kr/tim 8-22 alla dagar. Övrig tid: 2 kr/tim P-förbud onsdagar klockan 02.00 - 07.00.", "type": "other", "source": "easypark", "operator": "Göteborgs stads parkeringsaktiebolag", "area_type_raw": "ON_STREET_POLYGON", "status": "ACTIVE"}, {"id": "ep_80100247", "name": "801 Linnéplatsen", "lat": 57.690759, "lon": 11.951212, "price_sek_hr": 34.0, "price_text": "34 kr/tim 8-22 alla dagar. Övrig tid: 2 kr/tim P-förbud onsdagar klockan 02.00 - 07.00.", "type": "other", "source": "easypark", "operator": "Göteborgs stads parkeringsaktiebolag", "area_type_raw": "ON_STREET_POLYGON", "status": "ACTIVE"}, {"id": "ep_80104180", "name": "801 Lorensbergsgatan", "lat": 57.70043, "lon": 11.976396, "price_sek_hr": 34.0, "price_text": "34 kr/tim 8-22 alla dagar. Övrig tid: 2 kr/tim P-förbud torsdagar klockan 02.00 - 07.00.", "type": "other", "source": "easypark", "operator": "Göteborgs stads parkeringsaktiebolag", "area_type_raw": "NPAL", "status": "ACTIVE"}, {"id": "ep_80100781", "name": "801 Lorensbergsgatan", "lat": 57.699914, "lon": 11.977125, "price_sek_hr": 34.0, "price_text": "34 kr/tim 8-22 alla dagar. Övrig tid: 2 kr/tim P-förbud torsdagar klockan 02.00 - 07.00.", "type": "other", "source": "easypark", "operator": "Göteborgs stads parkeringsaktiebolag", "area_type_raw": "ON_STREET_POLYGON", "status": "ACTIVE"}, {"id": "ep_80102005", "name": "801 Lorensbergsgatan", "lat": 57.699911, "lon": 11.977132, "price_sek_hr": 34.0, "price_text": "34 kr/tim 8-22 alla dagar. Övrig tid: 2 kr/tim P-förbud onsdagar klockan 09.00 - 12.00 jämna veckor.", "type": "other", "source": "easypark", "operator": "Göteborgs stads parkeringsaktiebolag", "area_type_raw": "ON_STREET_POLYGON", "status": "ACTIVE"}, {"id": "ep_80100428", "name": "801 Lundgrensgatan", "lat": 57.694247, "lon": 11.986203, "price_sek_hr": 34.0, "price_text": "34 kr/tim 8-22 alla dagar. Övrig tid: 2 kr/tim P-förbud tisdagar klockan 09.00 - 12.00 jämna veckor.", "type": "other", "source": "easypark", "operator": "Göteborgs stads parkeringsaktiebolag", "area_type_raw": "ON_STREET_POLYGON", "status": "ACTIVE"}, {"id": "ep_80103340", "name": "801 Luntantugatan", "lat": 57.702816, "lon": 11.95848, "price_sek_hr": 34.0, "price_text": "34 kr/tim 8-22 alla dagar. Övrig tid: 2 kr/tim", "type": "other", "source": "easypark", "operator": "Göteborgs stads parkeringsaktiebolag", "area_type_raw": "ON_STREET_POLYGON", "status": "ACTIVE"}, {"id": "ep_80102324", "name": "801 Majorsgatan", "lat": 57.693803, "lon": 11.952959, "price_sek_hr": 34.0, "price_text": "34 kr/tim 8-22 alla dagar. Övrig tid: 2 kr/tim P-förbud fredagar klockan 09.00 - 12.00 jämna veckor.", "type": "other", "source": "easypark", "operator": "Göteborgs stads parkeringsaktiebolag", "area_type_raw": "ON_STREET_POLYGON", "status": "ACTIVE"}, {"id": "ep_80102471", "name": "801 Masthamnsgatan", "lat": 57.700142, "lon": 11.945061, "price_sek_hr": 34.0, "price_text": "34 kr/tim 8-22 alla dagar. Övrig tid: 2 kr/tim", "type": "other", "source": "easypark", "operator": "Göteborgs stads parkeringsaktiebolag", "area_type_raw": "ON_STREET_POLYGON", "status": "ACTIVE"}, {"id": "ep_80100407", "name": "801 Masthuggstorget", "lat": 57.698983, "lon": 11.943687, "price_sek_hr": 34.0, "price_text": "34 kr/tim 8-22 alla dagar. Övrig tid: 2 kr/tim P-förbud onsdagar klockan 02.00 - 07.00.", "type": "other", "source": "easypark", "operator": "Göteborgs stads parkeringsaktiebolag", "area_type_raw": "ON_STREET_POLYGON", "status": "ACTIVE"}, {"id": "ep_80103905", "name": "801 Molinsgatan", "lat": 57.694679, "lon": 11.97371, "price_sek_hr": 34.0, "price_text": "34 kr/tim 8-22 alla dagar. Övrig tid: 2 kr/tim P-förbud onsdagar klockan 09.00 - 12.00 jämna veckor.", "type": "other", "source": "easypark", "operator": "Göteborgs stads parkeringsaktiebolag", "area_type_raw": "ON_STREET_POLYGON", "status": "ACTIVE"}, {"id": "ep_80102028", "name": "801 Molinsgatan", "lat": 57.696839, "lon": 11.971956, "price_sek_hr": 34.0, "price_text": "34 kr/tim 8-22 alla dagar. Övrig tid: 2 kr/tim P-förbud onsdagar klockan 09.00 - 12.00 jämna veckor.", "type": "other", "source": "easypark", "operator": "Göteborgs stads parkeringsaktiebolag", "area_type_raw": "ON_STREET_POLYGON", "status": "ACTIVE"}, {"id": "ep_80103968", "name": "801 Molinsgatan", "lat": 57.69468, "lon": 11.973838, "price_sek_hr": 34.0, "price_text": "34 kr/tim 8-22 alla dagar. Övrig tid: 2 kr/tim", "type": "other", "source": "easypark", "operator": "Göteborgs stads parkeringsaktiebolag", "area_type_raw": "ON_STREET_POLYGON", "status": "ACTIVE"}, {"id": "ep_80102560", "name": "801 Molinsgatan", "lat": 57.696854, "lon": 11.971812, "price_sek_hr": 34.0, "price_text": "34 kr/tim 8-22 alla dagar. Övrig tid: 2 kr/tim P-förbud onsdagar klockan 09.00 - 12.00 jämna veckor.", "type": "other", "source": "easypark", "operator": "Göteborgs stads parkeringsaktiebolag", "area_type_raw": "ON_STREET_POLYGON", "status": "ACTIVE"}, {"id": "ep_80100459", "name": "801 Molinsgatan", "lat": 57.695919, "lon": 11.972701, "price_sek_hr": 34.0, "price_text": "34 kr/tim 8-22 alla dagar. Övrig tid: 2 kr/tim", "type": "other", "source": "easypark", "operator": "Göteborgs stads parkeringsaktiebolag", "area_type_raw": "ON_STREET_POLYGON", "status": "ACTIVE"}, {"id": "ep_80100056", "name": "801 Molinsgatan", "lat": 57.695566, "lon": 11.973001, "price_sek_hr": 34.0, "price_text": "34 kr/tim 8-22 alla dagar. Övrig tid: 2 kr/tim P-förbud onsdagar klockan 09.00 - 12.00 jämna veckor.", "type": "other", "source": "easypark", "operator": "Göteborgs stads parkeringsaktiebolag", "area_type_raw": "ON_STREET_POLYGON", "status": "ACTIVE"}, {"id": "ep_80103228", "name": "801 Nedre Fogelbergsgatan", "lat": 57.697412, "lon": 11.964069, "price_sek_hr": 34.0, "price_text": "34 kr/tim 8-22 alla dagar. Övrig tid: 2 kr/tim P-förbud torsdagar klockan 02.00 - 07.00.", "type": "other", "source": "easypark", "operator": "Göteborgs stads parkeringsaktiebolag", "area_type_raw": "ON_STREET_POLYGON", "status": "ACTIVE"}, {"id": "ep_80102037", "name": "801 Nordenskiöldsgatan", "lat": 57.692616, "lon": 11.949315, "price_sek_hr": 34.0, "price_text": "34 kr/tim 8-22 alla dagar. Övrig tid: 2 kr/tim P-förbud fredagar klockan 08.00 - 10.00 udda veckor.", "type": "other", "source": "easypark", "operator": "Göteborgs stads parkeringsaktiebolag", "area_type_raw": "ON_STREET_POLYGON", "status": "ACTIVE"}, {"id": "ep_80101554", "name": "801 Nordenskiöldsgatan", "lat": 57.692563, "lon": 11.953909, "price_sek_hr": 34.0, "price_text": "34 kr/tim 8-22 alla dagar. Övrig tid: 2 kr/tim P-förbud onsdagar klockan 09.00 - 12.00 udda veckor.", "type": "other", "source": "easypark", "operator": "Göteborgs stads parkeringsaktiebolag", "area_type_raw": "NPAL", "status": "ACTIVE"}, {"id": "ep_80101555", "name": "801 Nordenskiöldsgatan", "lat": 57.692645, "lon": 11.953739, "price_sek_hr": 34.0, "price_text": "34 kr/tim 8-22 alla dagar. Övrig tid: 2 kr/tim P-förbud onsdagar klockan 09.00 - 12.00 udda veckor.", "type": "other", "source": "easypark", "operator": "Göteborgs stads parkeringsaktiebolag", "area_type_raw": "NPAL", "status": "ACTIVE"}, {"id": "ep_80100490", "name": "801 Nordhemsgatan", "lat": 57.69766, "lon": 11.949871, "price_sek_hr": 34.0, "price_text": "34 kr/tim 8-22 alla dagar. Övrig tid: 2 kr/tim P-förbud måndagar klockan 08.00 - 10.00.", "type": "other", "source": "easypark", "operator": "Göteborgs stads parkeringsaktiebolag", "area_type_raw": "ON_STREET_POLYGON", "status": "ACTIVE"}, {"id": "ep_80100142", "name": "801 Nordhemsgatan", "lat": 57.696635, "lon": 11.950249, "price_sek_hr": 34.0, "price_text": "34 kr/tim 8-22 alla dagar. Övrig tid: 2 kr/tim P-förbud tisdagar klockan 08.00 - 10.00 udda veckor.", "type": "other", "source": "easypark", "operator": "Göteborgs stads parkeringsaktiebolag", "area_type_raw": "ON_STREET_POLYGON", "status": "ACTIVE"}, {"id": "ep_80101574", "name": "801 Nordhemsgatan", "lat": 57.695676, "lon": 11.950706, "price_sek_hr": 34.0, "price_text": "34 kr/tim 8-22 alla dagar. Övrig tid: 2 kr/tim P-förbud torsdagar klockan 08.00 - 10.00 udda veckor.", "type": "other", "source": "easypark", "operator": "Göteborgs stads parkeringsaktiebolag", "area_type_raw": "ON_STREET_POLYGON", "status": "ACTIVE"}, {"id": "ep_80101490", "name": "801 Nordhemsgatan", "lat": 57.693248, "lon": 11.950342, "price_sek_hr": 34.0, "price_text": "34 kr/tim 8-22 alla dagar. Övrig tid: 2 kr/tim P-förbud torsdagar klockan 08.00 - 10.00 udda veckor.", "type": "other", "source": "easypark", "operator": "Göteborgs stads parkeringsaktiebolag", "area_type_raw": "NPAL", "status": "ACTIVE"}, {"id": "ep_80101570", "name": "801 Nordhemsgatan", "lat": 57.694327, "lon": 11.950696, "price_sek_hr": 34.0, "price_text": "34 kr/tim 8-22 alla dagar. Övrig tid: 2 kr/tim P-förbud torsdagar klockan 08.00 - 10.00 udda veckor.", "type": "other", "source": "easypark", "operator": "Göteborgs stads parkeringsaktiebolag", "area_type_raw": "NPAL", "status": "ACTIVE"}, {"id": "ep_80101935", "name": "801 Norra Hamngatan", "lat": 57.706179, "lon": 11.962107, "price_sek_hr": 34.0, "price_text": "34 kr/tim 8-22 alla dagar. Övrig tid: 2 kr/tim", "type": "other", "source": "easypark", "operator": "Göteborgs stads parkeringsaktiebolag", "area_type_raw": "ON_STREET_POLYGON", "status": "ACTIVE"}, {"id": "ep_80100387", "name": "801 Norra Hamngatan", "lat": 57.706269, "lon": 11.96338, "price_sek_hr": 34.0, "price_text": "34 kr/tim 8-22 alla dagar. Övrig tid: 2 kr/tim", "type": "other", "source": "easypark", "operator": "Göteborgs stads parkeringsaktiebolag", "area_type_raw": "ON_STREET_POLYGON", "status": "ACTIVE"}, {"id": "ep_80101734", "name": "801 Norra Hamngatan", "lat": 57.706236, "lon": 11.962337, "price_sek_hr": 34.0, "price_text": "34 kr/tim 8-22 alla dagar. Övrig tid: 2 kr/tim", "type": "other", "source": "easypark", "operator": "Göteborgs stads parkeringsaktiebolag", "area_type_raw": "ON_STREET_POLYGON", "status": "ACTIVE"}, {"id": "ep_80101911", "name": "801 Odinsgatan", "lat": 57.708779, "lon": 11.979592, "price_sek_hr": 34.0, "price_text": "34 kr/tim 8-22 alla dagar. Övrig tid: 2 kr/tim P-förbud fredagar klockan 02.00 - 07.00.", "type": "other", "source": "easypark", "operator": "Göteborgs stads parkeringsaktiebolag", "area_type_raw": "ON_STREET_POLYGON", "status": "ACTIVE"}, {"id": "ep_80101974", "name": "801 Odinsgatan", "lat": 57.709301, "lon": 11.982365, "price_sek_hr": 34.0, "price_text": "34 kr/tim 8-22 alla dagar. Övrig tid: 2 kr/tim P-förbud fredagar klockan 02.00 - 07.00.", "type": "other", "source": "easypark", "operator": "Göteborgs stads parkeringsaktiebolag", "area_type_raw": "ON_STREET_POLYGON", "status": "ACTIVE"}, {"id": "ep_80101959", "name": "801 Odinsgatan", "lat": 57.709103, "lon": 11.981027, "price_sek_hr": 34.0, "price_text": "34 kr/tim 8-22 alla dagar. Övrig tid: 2 kr/tim P-förbud fredagar klockan 02.00 - 07.00.", "type": "other", "source": "easypark", "operator": "Göteborgs stads parkeringsaktiebolag", "area_type_raw": "ON_STREET_POLYGON", "status": "ACTIVE"}, {"id": "ep_80101496", "name": "801 Olivedalsgatan", "lat": 57.69197, "lon": 11.950762, "price_sek_hr": 34.0, "price_text": "34 kr/tim 8-22 alla dagar. Övrig tid: 2 kr/tim P-förbud fredagar klockan 08.00 - 10.00 udda veckor.", "type": "other", "source": "easypark", "operator": "Göteborgs stads parkeringsaktiebolag", "area_type_raw": "NPAL", "status": "ACTIVE"}, {"id": "ep_80102017", "name": "801 Olivedalsgatan", "lat": 57.691976, "lon": 11.949655, "price_sek_hr": 34.0, "price_text": "34 kr/tim 8-22 alla dagar. Övrig tid: 2 kr/tim P-förbud fredagar klockan 08.00 - 10.00 udda veckor.", "type": "other", "source": "easypark", "operator": "Göteborgs stads parkeringsaktiebolag", "area_type_raw": "NPAL", "status": "ACTIVE"}, {"id": "ep_80102035", "name": "801 Olivedalsgatan", "lat": 57.691916, "lon": 11.949235, "price_sek_hr": 34.0, "price_text": "34 kr/tim 8-22 alla dagar. Övrig tid: 2 kr/tim P-förbud fredagar klockan 08.00 - 10.00 udda veckor.", "type": "other", "source": "easypark", "operator": "Göteborgs stads parkeringsaktiebolag", "area_type_raw": "NPAL", "status": "ACTIVE"}, {"id": "ep_80102027", "name": "801 Olivedalsgatan", "lat": 57.691904, "lon": 11.950962, "price_sek_hr": 34.0, "price_text": "34 kr/tim 8-22 alla dagar. Övrig tid: 2 kr/tim P-förbud fredagar klockan 08.00 - 10.00 udda veckor.", "type": "other", "source": "easypark", "operator": "Göteborgs stads parkeringsaktiebolag", "area_type_raw": "NPAL", "status": "ACTIVE"}, {"id": "ep_80100907", "name": "801 Olof Wijksgatan", "lat": 57.697328, "lon": 11.983394, "price_sek_hr": 34.0, "price_text": "34 kr/tim 8-22 alla dagar. Övrig tid: 2 kr/tim P-förbud tisdagar klockan 09.00 - 12.00 jämna veckor.", "type": "other", "source": "easypark", "operator": "Göteborgs stads parkeringsaktiebolag", "area_type_raw": "NPAL", "status": "ACTIVE"}, {"id": "ep_80101051", "name": "801 Operagatan", "lat": 57.71012, "lon": 11.963009, "price_sek_hr": 34.0, "price_text": "34 kr/tim 8-22 alla dagar. Övrig tid: 2 kr/tim", "type": "other", "source": "easypark", "operator": "Göteborgs stads parkeringsaktiebolag", "area_type_raw": "ON_STREET_POLYGON", "status": "ACTIVE"}, {"id": "ep_80100234", "name": "801 Plantagegatan", "lat": 57.69724, "lon": 11.949129, "price_sek_hr": 34.0, "price_text": "34 kr/tim 8-22 alla dagar. Övrig tid: 2 kr/tim P-förbud tisdagar klockan 08.00 - 10.00 udda veckor.", "type": "other", "source": "easypark", "operator": "Göteborgs stads parkeringsaktiebolag", "area_type_raw": "ON_STREET_POLYGON", "status": "ACTIVE"}, {"id": "ep_80100835", "name": "801 Prinsgatan", "lat": 57.696449, "lon": 11.949268, "price_sek_hr": 34.0, "price_text": "34 kr/tim 8-22 alla dagar. Övrig tid: 2 kr/tim P-förbud tisdagar klockan 08.00 - 10.00 udda veckor.", "type": "other", "source": "easypark", "operator": "Göteborgs stads parkeringsaktiebolag", "area_type_raw": "ON_STREET_POLYGON", "status": "ACTIVE"}, {"id": "ep_80101491", "name": "801 Risåsgatan", "lat": 57.695012, "lon": 11.954228, "price_sek_hr": 34.0, "price_text": "34 kr/tim 8-22 alla dagar. Övrig tid: 2 kr/tim P-förbud fredagar klockan 09.00 - 12.00 jämna veckor.", "type": "other", "source": "easypark", "operator": "Göteborgs stads parkeringsaktiebolag", "area_type_raw": "NPAL", "status": "ACTIVE"}, {"id": "ep_80100615", "name": "801 Risåsgatan", "lat": 57.69498, "lon": 11.954461, "price_sek_hr": 34.0, "price_text": "34 kr/tim 8-22 alla dagar. Övrig tid: 2 kr/tim P-förbud fredagar klockan 09.00 - 12.00 jämna veckor.", "type": "other", "source": "easypark", "operator": "Göteborgs stads parkeringsaktiebolag", "area_type_raw": "NPAL", "status": "ACTIVE"}, {"id": "ep_80100969", "name": "801 Risåsgatan", "lat": 57.694373, "lon": 11.956428, "price_sek_hr": 34.0, "price_text": "34 kr/tim 8-22 alla dagar. Övrig tid: 2 kr/tim P-förbud fredagar klockan 09.00 - 12.00 jämna veckor.", "type": "other", "source": "easypark", "operator": "Göteborgs stads parkeringsaktiebolag", "area_type_raw": "ON_STREET_POLYGON", "status": "ACTIVE"}, {"id": "ep_80100010", "name": "801 Rosengatan", "lat": 57.691179, "lon": 11.951278, "price_sek_hr": 34.0, "price_text": "34 kr/tim 8-22 alla dagar. Övrig tid: 2 kr/tim P-förbud fredagar klockan 08.00 - 10.00 udda veckor.", "type": "other", "source": "easypark", "operator": "Göteborgs stads parkeringsaktiebolag", "area_type_raw": "ON_STREET_POLYGON", "status": "ACTIVE"}, {"id": "ep_80100014", "name": "801 Rosengatan", "lat": 57.691287, "lon": 11.949752, "price_sek_hr": 34.0, "price_text": "34 kr/tim 8-22 alla dagar. Övrig tid: 2 kr/tim P-förbud fredagar klockan 08.00 - 10.00 udda veckor.", "type": "other", "source": "easypark", "operator": "Göteborgs stads parkeringsaktiebolag", "area_type_raw": "ON_STREET_POLYGON", "status": "ACTIVE"}, {"id": "ep_80101235", "name": "801 Rosengatan", "lat": 57.69119, "lon": 11.949653, "price_sek_hr": 34.0, "price_text": "34 kr/tim 8-22 alla dagar. Övrig tid: 2 kr/tim P-förbud fredagar klockan 08.00 - 10.00 udda veckor.", "type": "other", "source": "easypark", "operator": "Göteborgs stads parkeringsaktiebolag", "area_type_raw": "ON_STREET_POLYGON", "status": "ACTIVE"}, {"id": "ep_80102655", "name": "801 Rosenlundsgatan", "lat": 57.700986, "lon": 11.959185, "price_sek_hr": 34.0, "price_text": "34 kr/tim 8-22 alla dagar. Övrig tid: 2 kr/tim", "type": "other", "source": "easypark", "operator": "Göteborgs stads parkeringsaktiebolag", "area_type_raw": "ON_STREET_POLYGON", "status": "ACTIVE"}, {"id": "ep_80100306", "name": "801 Sahlgrensgatan", "lat": 57.701605, "lon": 11.965256, "price_sek_hr": 34.0, "price_text": "34 kr/tim 8-22 alla dagar. Övrig tid: 2 kr/tim", "type": "other", "source": "easypark", "operator": "Göteborgs stads parkeringsaktiebolag", "area_type_raw": "ON_STREET_POLYGON", "status": "ACTIVE"}, {"id": "ep_80100426", "name": "801 Sahlgrensgatan", "lat": 57.700855, "lon": 11.962108, "price_sek_hr": 34.0, "price_text": "34 kr/tim 8-22 alla dagar. Övrig tid: 2 kr/tim", "type": "other", "source": "easypark", "operator": "Göteborgs stads parkeringsaktiebolag", "area_type_raw": "ON_STREET_POLYGON", "status": "ACTIVE"}, {"id": "ep_80101037", "name": "801 Skanstorget", "lat": 57.696128, "lon": 11.957996, "price_sek_hr": 34.0, "price_text": "34 kr/tim 8-22 alla dagar. Övrig tid: 2 kr/tim P-förbud onsdagar klockan 02.00 - 07.00.", "type": "other", "source": "easypark", "operator": "Göteborgs stads parkeringsaktiebolag", "area_type_raw": "ON_STREET_POLYGON", "status": "ACTIVE"}, {"id": "ep_80100579", "name": "801 Skanstorget", "lat": 57.695742, "lon": 11.957824, "price_sek_hr": 34.0, "price_text": "34 kr/tim 8-22 alla dagar. Övrig tid: 2 kr/tim", "type": "other", "source": "easypark", "operator": "Göteborgs stads parkeringsaktiebolag", "area_type_raw": "ON_STREET_POLYGON", "status": "ACTIVE"}, {"id": "ep_80100698", "name": "801 Skånegatan", "lat": 57.700676, "lon": 11.985551, "price_sek_hr": 34.0, "price_text": "34 kr/tim 8-22 alla dagar. Övrig tid: 2 kr/tim P-förbud fredagar klockan 02.00 - 07.00.", "type": "other", "source": "easypark", "operator": "Göteborgs stads parkeringsaktiebolag", "area_type_raw": "ON_STREET_POLYGON", "status": "ACTIVE"}, {"id": "ep_80104294", "name": "801 Skånegatan", "lat": 57.697745, "lon": 11.986444, "price_sek_hr": 34.0, "price_text": "34 kr/tim 8-22 alla dagar. Övrig tid: 2 kr/tim P-förbud fredagar klockan 02.00 - 07.00.", "type": "other", "source": "easypark", "operator": "Göteborgs stads parkeringsaktiebolag", "area_type_raw": "NPAL", "status": "ACTIVE"}, {"id": "ep_80101291", "name": "801 Sprängkullsgatan", "lat": 57.696213, "lon": 11.959777, "price_sek_hr": 34.0, "price_text": "34 kr/tim 8-22 alla dagar. Övrig tid: 2 kr/tim P-förbud onsdagar klockan 02.00 - 07.00.", "type": "other", "source": "easypark", "operator": "Göteborgs stads parkeringsaktiebolag", "area_type_raw": "ON_STREET_POLYGON", "status": "ACTIVE"}, {"id": "ep_80100515", "name": "801 Sprängkullsgatan", "lat": 57.698686, "lon": 11.960879, "price_sek_hr": 34.0, "price_text": "34 kr/tim 8-22 alla dagar. Övrig tid: 2 kr/tim", "type": "other", "source": "easypark", "operator": "Göteborgs stads parkeringsaktiebolag", "area_type_raw": "ON_STREET_POLYGON", "status": "ACTIVE"}, {"id": "ep_80100908", "name": "801 Sten Sturegatan", "lat": 57.70057, "lon": 11.984356, "price_sek_hr": 34.0, "price_text": "34 kr/tim 8-22 alla dagar. Övrig tid: 2 kr/tim P-förbud fredagar klockan 02.00 - 07.00.", "type": "other", "source": "easypark", "operator": "Göteborgs stads parkeringsaktiebolag", "area_type_raw": "ON_STREET_POLYGON", "status": "ACTIVE"}, {"id": "ep_80104249", "name": "801 Sten Sturegatan", "lat": 57.700538, "lon": 11.984223, "price_sek_hr": 34.0, "price_text": "34 kr/tim 8-22 alla dagar. Övrig tid: 2 kr/tim P-förbud fredagar klockan 02.00 - 07.00.", "type": "other", "source": "easypark", "operator": "Göteborgs stads parkeringsaktiebolag", "area_type_raw": "ON_STREET_POLYGON", "status": "ACTIVE"}, {"id": "ep_80104235", "name": "801 Sten Sturegatan", "lat": 57.701977, "lon": 11.982345, "price_sek_hr": 34.0, "price_text": "34 kr/tim 8-22 alla dagar. Övrig tid: 2 kr/tim P-förbud fredagar klockan 02.00 - 07.00.", "type": "other", "source": "easypark", "operator": "Göteborgs stads parkeringsaktiebolag", "area_type_raw": "ON_STREET_POLYGON", "status": "ACTIVE"}, {"id": "ep_80101557", "name": "801 Stenhammarsgatan", "lat": 57.696529, "lon": 11.97886, "price_sek_hr": 34.0, "price_text": "34 kr/tim 8-22 alla dagar. Övrig tid: 2 kr/tim P-förbud tisdagar klockan 02.00 - 07.00.", "type": "other", "source": "easypark", "operator": "Göteborgs stads parkeringsaktiebolag", "area_type_raw": "ON_STREET_POLYGON", "status": "ACTIVE"}, {"id": "ep_80100315", "name": "801 Storgatan", "lat": 57.700174, "lon": 11.969513, "price_sek_hr": 34.0, "price_text": "34 kr/tim 8-22 alla dagar. Övrig tid: 2 kr/tim", "type": "other", "source": "easypark", "operator": "Göteborgs stads parkeringsaktiebolag", "area_type_raw": "ON_STREET_POLYGON", "status": "ACTIVE"}, {"id": "ep_80101717", "name": "801 Storgatan", "lat": 57.700615, "lon": 11.970664, "price_sek_hr": 34.0, "price_text": "34 kr/tim 8-22 alla dagar. Övrig tid: 2 kr/tim", "type": "other", "source": "easypark", "operator": "Göteborgs stads parkeringsaktiebolag", "area_type_raw": "ON_STREET_POLYGON", "status": "ACTIVE"}, {"id": "ep_80103953", "name": "801 Storgatan", "lat": 57.70102, "lon": 11.971636, "price_sek_hr": 34.0, "price_text": "34 kr/tim 8-22 alla dagar. Övrig tid: 2 kr/tim", "type": "other", "source": "easypark", "operator": "Göteborgs stads parkeringsaktiebolag", "area_type_raw": "ON_STREET_POLYGON", "status": "ACTIVE"}, {"id": "ep_80100123", "name": "801 Storgatan", "lat": 57.699839, "lon": 11.968484, "price_sek_hr": 34.0, "price_text": "34 kr/tim 8-22 alla dagar. Övrig tid: 2 kr/tim P-förbud onsdagar klockan 08.00 - 10.00.", "type": "other", "source": "easypark", "operator": "Göteborgs stads parkeringsaktiebolag", "area_type_raw": "ON_STREET_POLYGON", "status": "ACTIVE"}, {"id": "ep_80100305", "name": "801 Storgatan", "lat": 57.699458, "lon": 11.965972, "price_sek_hr": 34.0, "price_text": "34 kr/tim 8-22 alla dagar. Övrig tid: 2 kr/tim P-förbud onsdagar klockan 08.00 - 10.00.", "type": "other", "source": "easypark", "operator": "Göteborgs stads parkeringsaktiebolag", "area_type_raw": "ON_STREET_POLYGON", "status": "ACTIVE"}, {"id": "ep_80103958", "name": "801 Storgatan", "lat": 57.701434, "lon": 11.972622, "price_sek_hr": 34.0, "price_text": "34 kr/tim 8-22 alla dagar. Övrig tid: 2 kr/tim", "type": "other", "source": "easypark", "operator": "Göteborgs stads parkeringsaktiebolag", "area_type_raw": "ON_STREET_POLYGON", "status": "ACTIVE"}, {"id": "ep_80100327", "name": "801 Storgatan", "lat": 57.699563, "lon": 11.967079, "price_sek_hr": 34.0, "price_text": "34 kr/tim 8-22 alla dagar. Övrig tid: 2 kr/tim P-förbud onsdagar klockan 08.00 - 10.00.", "type": "other", "source": "easypark", "operator": "Göteborgs stads parkeringsaktiebolag", "area_type_raw": "ON_STREET_POLYGON", "status": "ACTIVE"}, {"id": "ep_80100334", "name": "801 Storgatan", "lat": 57.699655, "lon": 11.967268, "price_sek_hr": 34.0, "price_text": "34 kr/tim 8-22 alla dagar. Övrig tid: 2 kr/tim P-förbud onsdagar klockan 08.00 - 10.00.", "type": "other", "source": "easypark", "operator": "Göteborgs stads parkeringsaktiebolag", "area_type_raw": "ON_STREET_POLYGON", "status": "ACTIVE"}, {"id": "ep_80101352", "name": "801 Storgatan", "lat": 57.701386, "lon": 11.972677, "price_sek_hr": 34.0, "price_text": "34 kr/tim 8-22 alla dagar. Övrig tid: 2 kr/tim P-förbud måndagar klockan 08.00 - 10.00.", "type": "other", "source": "easypark", "operator": "Göteborgs stads parkeringsaktiebolag", "area_type_raw": "ON_STREET_POLYGON", "status": "ACTIVE"}, {"id": "ep_80102023", "name": "801 Storgatan", "lat": 57.700632, "lon": 11.970809, "price_sek_hr": 34.0, "price_text": "34 kr/tim 8-22 alla dagar. Övrig tid: 2 kr/tim P-förbud måndagar klockan 08.00 - 10.00.", "type": "other", "source": "easypark", "operator": "Göteborgs stads parkeringsaktiebolag", "area_type_raw": "ON_STREET_POLYGON", "status": "ACTIVE"}, {"id": "ep_80100326", "name": "801 Storgatan", "lat": 57.69937, "lon": 11.965793, "price_sek_hr": 34.0, "price_text": "34 kr/tim 8-22 alla dagar. Övrig tid: 2 kr/tim P-förbud onsdagar klockan 08.00 - 10.00.", "type": "other", "source": "easypark", "operator": "Göteborgs stads parkeringsaktiebolag", "area_type_raw": "ON_STREET_POLYGON", "status": "ACTIVE"}, {"id": "ep_80101043", "name": "801 Storgatan", "lat": 57.699045, "lon": 11.963673, "price_sek_hr": 34.0, "price_text": "34 kr/tim 8-22 alla dagar. Övrig tid: 2 kr/tim P-förbud måndagar klockan 08.00 - 10.00.", "type": "other", "source": "easypark", "operator": "Göteborgs stads parkeringsaktiebolag", "area_type_raw": "ON_STREET_POLYGON", "status": "ACTIVE"}, {"id": "ep_80103235", "name": "801 Storgatan", "lat": 57.699167, "lon": 11.96413, "price_sek_hr": 34.0, "price_text": "34 kr/tim 8-22 alla dagar. Övrig tid: 2 kr/tim", "type": "other", "source": "easypark", "operator": "Göteborgs stads parkeringsaktiebolag", "area_type_raw": "ON_STREET_POLYGON", "status": "ACTIVE"}, {"id": "ep_80100133", "name": "801 Storgatan", "lat": 57.705421, "lon": 11.990713, "price_sek_hr": 34.0, "price_text": "34 kr/tim 8-22 alla dagar. Övrig tid: 2 kr/tim P-förbud onsdagar klockan 08.00 - 10.00.", "type": "other", "source": "easypark", "operator": "Göteborgs stads parkeringsaktiebolag", "area_type_raw": "ON_STREET_POLYGON", "status": "ACTIVE"}, {"id": "ep_80101558", "name": "801 Sveagatan", "lat": 57.693224, "lon": 11.954178, "price_sek_hr": 34.0, "price_text": "34 kr/tim 8-22 alla dagar. Övrig tid: 2 kr/tim P-förbud onsdagar klockan 09.00 - 12.00 udda veckor.", "type": "other", "source": "easypark", "operator": "Göteborgs stads parkeringsaktiebolag", "area_type_raw": "NPAL", "status": "ACTIVE"}, {"id": "ep_80101497", "name": "801 Sveagatan", "lat": 57.693444, "lon": 11.954186, "price_sek_hr": 34.0, "price_text": "34 kr/tim 8-22 alla dagar. Övrig tid: 2 kr/tim P-förbud onsdagar klockan 09.00 - 12.00 udda veckor.", "type": "other", "source": "easypark", "operator": "Göteborgs stads parkeringsaktiebolag", "area_type_raw": "NPAL", "status": "ACTIVE"}, {"id": "ep_80102014", "name": "801 Sveagatan", "lat": 57.694587, "lon": 11.953771, "price_sek_hr": 34.0, "price_text": "34 kr/tim 8-22 alla dagar. Övrig tid: 2 kr/tim P-förbud fredagar klockan 09.00 - 12.00 jämna veckor.", "type": "other", "source": "easypark", "operator": "Göteborgs stads parkeringsaktiebolag", "area_type_raw": "NPAL", "status": "ACTIVE"}, {"id": "ep_80101628", "name": "801 Sveagatan", "lat": 57.694564, "lon": 11.953671, "price_sek_hr": 34.0, "price_text": "34 kr/tim 8-22 alla dagar. Övrig tid: 2 kr/tim P-förbud fredagar klockan 09.00 - 12.00 jämna veckor.", "type": "other", "source": "easypark", "operator": "Göteborgs stads parkeringsaktiebolag", "area_type_raw": "NPAL", "status": "ACTIVE"}, {"id": "ep_80101562", "name": "801 Södra Vägen", "lat": 57.700886, "lon": 11.976898, "price_sek_hr": 34.0, "price_text": "34 kr/tim 8-22 alla dagar. Övrig tid: 2 kr/tim", "type": "other", "source": "easypark", "operator": "Göteborgs stads parkeringsaktiebolag", "area_type_raw": "NPAL", "status": "ACTIVE"}, {"id": "ep_80101605", "name": "801 Södra Vägen", "lat": 57.700272, "lon": 11.978092, "price_sek_hr": 34.0, "price_text": "34 kr/tim 8-22 alla dagar. Övrig tid: 2 kr/tim", "type": "other", "source": "easypark", "operator": "Göteborgs stads parkeringsaktiebolag", "area_type_raw": "ON_STREET_POLYGON", "status": "ACTIVE"}, {"id": "ep_80100276", "name": "801 Södra Vägen", "lat": 57.694182, "lon": 11.989035, "price_sek_hr": 34.0, "price_text": "34 kr/tim 8-22 alla dagar. Övrig tid: 2 kr/tim", "type": "other", "source": "easypark", "operator": "Göteborgs stads parkeringsaktiebolag", "area_type_raw": "ON_STREET_POLYGON", "status": "ACTIVE"}, {"id": "ep_80100865", "name": "801 Södra Vägen", "lat": 57.694882, "lon": 11.988326, "price_sek_hr": 34.0, "price_text": "34 kr/tim 8-22 alla dagar. Övrig tid: 2 kr/tim P-förbud måndagar klockan 08.00 - 10.00 udda veckor.", "type": "other", "source": "easypark", "operator": "Göteborgs stads parkeringsaktiebolag", "area_type_raw": "ON_STREET_POLYGON", "status": "ACTIVE"}, {"id": "ep_80101353", "name": "801 Södra Vägen", "lat": 57.697957, "lon": 11.982803, "price_sek_hr": 34.0, "price_text": "34 kr/tim 8-22 alla dagar. Övrig tid: 2 kr/tim", "type": "other", "source": "easypark", "operator": "Göteborgs stads parkeringsaktiebolag", "area_type_raw": "ON_STREET_POLYGON", "status": "ACTIVE"}, {"id": "ep_80100537", "name": "801 Södra Vägen", "lat": 57.697944, "lon": 11.982764, "price_sek_hr": 34.0, "price_text": "34 kr/tim 8-22 alla dagar. Övrig tid: 2 kr/tim", "type": "other", "source": "easypark", "operator": "Göteborgs stads parkeringsaktiebolag", "area_type_raw": "ON_STREET_POLYGON", "status": "ACTIVE"}, {"id": "ep_80100277", "name": "801 Södra Vägen", "lat": 57.693572, "lon": 11.98967, "price_sek_hr": 34.0, "price_text": "34 kr/tim 8-22 alla dagar. Övrig tid: 2 kr/tim", "type": "other", "source": "easypark", "operator": "Göteborgs stads parkeringsaktiebolag", "area_type_raw": "NPAL", "status": "ACTIVE"}, {"id": "ep_80101618", "name": "801 Teatergatan", "lat": 57.69639, "lon": 11.952541, "price_sek_hr": 34.0, "price_text": "34 kr/tim 8-22 alla dagar. Övrig tid: 2 kr/tim P-förbud torsdagar klockan 02.00 - 07.00.", "type": "other", "source": "easypark", "operator": "Göteborgs stads parkeringsaktiebolag", "area_type_raw": "ON_STREET_POLYGON", "status": "ACTIVE"}, {"id": "ep_80101796", "name": "801 Teatergatan", "lat": 57.700847, "lon": 11.972812, "price_sek_hr": 34.0, "price_text": "34 kr/tim 8-22 alla dagar. Övrig tid: 2 kr/tim P-förbud måndagar klockan 08.00 - 10.00.", "type": "other", "source": "easypark", "operator": "Göteborgs stads parkeringsaktiebolag", "area_type_raw": "ON_STREET_POLYGON", "status": "ACTIVE"}, {"id": "ep_80101514", "name": "801 Teatergatan", "lat": 57.698874, "lon": 11.975632, "price_sek_hr": 34.0, "price_text": "34 kr/tim 8-22 alla dagar. Övrig tid: 2 kr/tim P-förbud torsdagar klockan 02.00 - 07.00.", "type": "other", "source": "easypark", "operator": "Göteborgs stads parkeringsaktiebolag", "area_type_raw": "NPAL", "status": "ACTIVE"}, {"id": "ep_80101931", "name": "801 Tomtegatan", "lat": 57.701464, "lon": 11.992667, "price_sek_hr": 34.0, "price_text": "34 kr/tim 8-22 alla dagar. Övrig tid: 2 kr/tim", "type": "other", "source": "easypark", "operator": "Göteborgs stads parkeringsaktiebolag", "area_type_raw": "ON_STREET_POLYGON", "status": "ACTIVE"}, {"id": "ep_80100138", "name": "801 Tredje Långgatan", "lat": 57.698436, "lon": 11.947582, "price_sek_hr": 34.0, "price_text": "34 kr/tim 8-22 alla dagar. Övrig tid: 2 kr/tim P-förbud måndagar klockan 08.00 - 10.00.", "type": "other", "source": "easypark", "operator": "Göteborgs stads parkeringsaktiebolag", "area_type_raw": "ON_STREET_POLYGON", "status": "ACTIVE"}, {"id": "ep_80100273", "name": "801 Tredje Långgatan", "lat": 57.701404, "lon": 11.963555, "price_sek_hr": 34.0, "price_text": "34 kr/tim 8-22 alla dagar. Övrig tid: 2 kr/tim P-förbud måndagar klockan 08.00 - 10.00.", "type": "other", "source": "easypark", "operator": "Göteborgs stads parkeringsaktiebolag", "area_type_raw": "ON_STREET_POLYGON", "status": "ACTIVE"}, {"id": "ep_80100149", "name": "801 Underåsgatan", "lat": 57.699043, "lon": 11.992565, "price_sek_hr": 34.0, "price_text": "34 kr/tim 8-22 alla dagar. Övrig tid: 2 kr/tim", "type": "other", "source": "easypark", "operator": "Göteborgs stads parkeringsaktiebolag", "area_type_raw": "ON_STREET_POLYGON", "status": "ACTIVE"}, {"id": "ep_80100355", "name": "801 Vasa Kyrkogata", "lat": 57.696572, "lon": 11.971509, "price_sek_hr": 34.0, "price_text": "34 kr/tim 8-22 alla dagar. Övrig tid: 2 kr/tim P-förbud onsdagar klockan 09.00 - 12.00 jämna veckor.", "type": "other", "source": "easypark", "operator": "Göteborgs stads parkeringsaktiebolag", "area_type_raw": "ON_STREET_POLYGON", "status": "ACTIVE"}, {"id": "ep_80103969", "name": "801 Vasagatan", "lat": 57.699208, "lon": 11.971308, "price_sek_hr": 34.0, "price_text": "34 kr/tim 8-22 alla dagar. Övrig tid: 2 kr/tim P-förbud torsdagar klockan 02.00 - 07.00.", "type": "other", "source": "easypark", "operator": "Göteborgs stads parkeringsaktiebolag", "area_type_raw": "ON_STREET_POLYGON", "status": "ACTIVE"}, {"id": "ep_80103980", "name": "801 Vasagatan", "lat": 57.699628, "lon": 11.972305, "price_sek_hr": 34.0, "price_text": "34 kr/tim 8-22 alla dagar. Övrig tid: 2 kr/tim P-förbud torsdagar klockan 02.00 - 07.00.", "type": "other", "source": "easypark", "operator": "Göteborgs stads parkeringsaktiebolag", "area_type_raw": "ON_STREET_POLYGON", "status": "ACTIVE"}, {"id": "ep_80101860", "name": "801 Vasagatan", "lat": 57.698715, "lon": 11.969039, "price_sek_hr": 34.0, "price_text": "34 kr/tim 8-22 alla dagar. Övrig tid: 2 kr/tim P-förbud torsdagar klockan 02.00 - 07.00.", "type": "other", "source": "easypark", "operator": "Göteborgs stads parkeringsaktiebolag", "area_type_raw": "ON_STREET_POLYGON", "status": "ACTIVE"}, {"id": "ep_80101981", "name": "801 Vasagatan", "lat": 57.697869, "lon": 11.963698, "price_sek_hr": 34.0, "price_text": "34 kr/tim 8-22 alla dagar. Övrig tid: 2 kr/tim P-förbud torsdagar klockan 02.00 - 07.00.", "type": "other", "source": "easypark", "operator": "Göteborgs stads parkeringsaktiebolag", "area_type_raw": "ON_STREET_POLYGON", "status": "ACTIVE"}, {"id": "ep_80103428", "name": "801 Vasagatan", "lat": 57.69827, "lon": 11.967829, "price_sek_hr": 34.0, "price_text": "34 kr/tim 8-22 alla dagar. Övrig tid: 2 kr/tim P-förbud torsdagar klockan 02.00 - 07.00.", "type": "other", "source": "easypark", "operator": "Göteborgs stads parkeringsaktiebolag", "area_type_raw": "ON_STREET_POLYGON", "status": "ACTIVE"}, {"id": "ep_80100285", "name": "801 Vasaplatsen", "lat": 57.69946, "lon": 11.969932, "price_sek_hr": 34.0, "price_text": "34 kr/tim 8-22 alla dagar. Övrig tid: 2 kr/tim P-förbud torsdagar klockan 02.00 - 07.00.", "type": "other", "source": "easypark", "operator": "Göteborgs stads parkeringsaktiebolag", "area_type_raw": "ON_STREET_POLYGON", "status": "ACTIVE"}, {"id": "ep_80103254", "name": "801 Vasaplatsen", "lat": 57.699319, "lon": 11.969141, "price_sek_hr": 34.0, "price_text": "34 kr/tim 8-22 alla dagar. Övrig tid: 2 kr/tim P-förbud torsdagar klockan 02.00 - 07.00.", "type": "other", "source": "easypark", "operator": "Göteborgs stads parkeringsaktiebolag", "area_type_raw": "ON_STREET_POLYGON", "status": "ACTIVE"}, {"id": "ep_80100414", "name": "801 Vegagatan", "lat": 57.691537, "lon": 11.94824, "price_sek_hr": 34.0, "price_text": "34 kr/tim 8-22 alla dagar. Övrig tid: 2 kr/tim P-förbud tisdagar klockan 08.00 - 10.00 udda veckor.", "type": "other", "source": "easypark", "operator": "Göteborgs stads parkeringsaktiebolag", "area_type_raw": "NPAL", "status": "ACTIVE"}, {"id": "ep_80100493", "name": "801 Vegagatan", "lat": 57.695484, "lon": 11.9482, "price_sek_hr": 34.0, "price_text": "34 kr/tim 8-22 alla dagar. Övrig tid: 2 kr/tim", "type": "other", "source": "easypark", "operator": "Göteborgs stads parkeringsaktiebolag", "area_type_raw": "NPAL", "status": "ACTIVE"}, {"id": "ep_80102299", "name": "801 Vegagatan", "lat": 57.696737, "lon": 11.948209, "price_sek_hr": 34.0, "price_text": "34 kr/tim 8-22 alla dagar. Övrig tid: 2 kr/tim", "type": "other", "source": "easypark", "operator": "Göteborgs stads parkeringsaktiebolag", "area_type_raw": "NPAL", "status": "ACTIVE"}, {"id": "ep_80101174", "name": "801 Vegagatan", "lat": 57.690323, "lon": 11.948189, "price_sek_hr": 34.0, "price_text": "34 kr/tim 8-22 alla dagar. Övrig tid: 2 kr/tim P-förbud torsdagar klockan 08.00 - 10.00 udda veckor.", "type": "other", "source": "easypark", "operator": "Göteborgs stads parkeringsaktiebolag", "area_type_raw": "ON_STREET_POLYGON", "status": "ACTIVE"}, {"id": "ep_80100165", "name": "801 Viktor Rydbergsgatan", "lat": 57.695827, "lon": 11.976717, "price_sek_hr": 34.0, "price_text": "34 kr/tim 8-22 alla dagar. Övrig tid: 2 kr/tim P-förbud tisdagar klockan 02.00 - 07.00.", "type": "other", "source": "easypark", "operator": "Göteborgs stads parkeringsaktiebolag", "area_type_raw": "NPAL", "status": "ACTIVE"}, {"id": "ep_80104712", "name": "801 Viktor Rydbergsgatan", "lat": 57.696967, "lon": 11.97821, "price_sek_hr": 34.0, "price_text": "34 kr/tim 8-22 alla dagar. Övrig tid: 2 kr/tim P-förbud tisdagar klockan 02.00 - 07.00.", "type": "other", "source": "easypark", "operator": "Göteborgs stads parkeringsaktiebolag", "area_type_raw": "ON_STREET_POLYGON", "status": "ACTIVE"}, {"id": "ep_80102178", "name": "801 Viktoriagatan", "lat": 57.69844, "lon": 11.965281, "price_sek_hr": 34.0, "price_text": "34 kr/tim 8-22 alla dagar. Övrig tid: 2 kr/tim P-förbud torsdagar klockan 02.00 - 07.00.", "type": "other", "source": "easypark", "operator": "Göteborgs stads parkeringsaktiebolag", "area_type_raw": "ON_STREET_POLYGON", "status": "ACTIVE"}, {"id": "ep_80100848", "name": "801 Viktoriagatan", "lat": 57.697268, "lon": 11.96611, "price_sek_hr": 34.0, "price_text": "34 kr/tim 8-22 alla dagar. Övrig tid: 2 kr/tim P-förbud torsdagar klockan 02.00 - 07.00.", "type": "other", "source": "easypark", "operator": "Göteborgs stads parkeringsaktiebolag", "area_type_raw": "ON_STREET_POLYGON", "status": "ACTIVE"}, {"id": "ep_80100178", "name": "801 Vädursgatan", "lat": 57.703525, "lon": 11.991823, "price_sek_hr": 34.0, "price_text": "34 kr/tim 8-22 alla dagar. Övrig tid: 2 kr/tim", "type": "other", "source": "easypark", "operator": "Göteborgs stads parkeringsaktiebolag", "area_type_raw": "NPAL", "status": "ACTIVE"}, {"id": "ep_80100442", "name": "801 Värmlandsgatan", "lat": 57.698022, "lon": 11.946876, "price_sek_hr": 34.0, "price_text": "34 kr/tim 8-22 alla dagar. Övrig tid: 2 kr/tim P-förbud måndagar klockan 08.00 - 10.00.", "type": "other", "source": "easypark", "operator": "Göteborgs stads parkeringsaktiebolag", "area_type_raw": "ON_STREET_POLYGON", "status": "ACTIVE"}, {"id": "ep_80103308", "name": "801 Västra Liden", "lat": 57.70344, "lon": 11.958329, "price_sek_hr": 34.0, "price_text": "34 kr/tim 8-22 alla dagar. Övrig tid: 2 kr/tim", "type": "other", "source": "easypark", "operator": "Göteborgs stads parkeringsaktiebolag", "area_type_raw": "NPAL", "status": "ACTIVE"}, {"id": "ep_80100147", "name": "801 Åvägen", "lat": 57.705691, "lon": 11.990305, "price_sek_hr": 34.0, "price_text": "34 kr/tim 8-22 alla dagar. Övrig tid: 2 kr/tim", "type": "other", "source": "easypark", "operator": "Göteborgs stads parkeringsaktiebolag", "area_type_raw": "NPAL", "status": "ACTIVE"}, {"id": "ep_80103542", "name": "801 Åvägen", "lat": 57.699258, "lon": 11.992104, "price_sek_hr": 34.0, "price_text": "34 kr/tim 8-22 alla dagar. Övrig tid: 2 kr/tim", "type": "other", "source": "easypark", "operator": "Göteborgs stads parkeringsaktiebolag", "area_type_raw": "NPAL", "status": "ACTIVE"}, {"id": "ep_80100173", "name": "801 Övre Husargatan", "lat": 57.693227, "lon": 11.956638, "price_sek_hr": 34.0, "price_text": "34 kr/tim 8-22 alla dagar. Övrig tid: 2 kr/tim P-förbud onsdagar klockan 02.00 - 07.00.", "type": "other", "source": "easypark", "operator": "Göteborgs stads parkeringsaktiebolag", "area_type_raw": "NPAL", "status": "ACTIVE"}, {"id": "ep_80101621", "name": "801 Övre Husargatan", "lat": 57.6933, "lon": 11.956383, "price_sek_hr": 34.0, "price_text": "34 kr/tim 8-22 alla dagar. Övrig tid: 2 kr/tim P-förbud onsdagar klockan 02.00 - 07.00.", "type": "other", "source": "easypark", "operator": "Göteborgs stads parkeringsaktiebolag", "area_type_raw": "NPAL", "status": "ACTIVE"}, {"id": "ep_80200524", "name": "802 Alströmergatan", "lat": 57.710889, "lon": 11.98895, "price_sek_hr": 34.0, "price_text": "34 kr/tim 8-22 alla dagar. Övrig tid: 2 kr/tim", "type": "other", "source": "easypark", "operator": "Göteborgs stads parkeringsaktiebolag", "area_type_raw": "ON_STREET_POLYGON", "status": "ACTIVE"}, {"id": "ep_80202030", "name": "802 Alströmergatan", "lat": 57.711037, "lon": 11.988199, "price_sek_hr": 34.0, "price_text": "34 kr/tim 8-22 alla dagar. Övrig tid: 2 kr/tim P-förbud tisdagar klockan 09.00 - 12.00 udda veckor.", "type": "other", "source": "easypark", "operator": "Göteborgs stads parkeringsaktiebolag", "area_type_raw": "ON_STREET_POLYGON", "status": "ACTIVE"}, {"id": "ep_80200227", "name": "802 Amund Grefwegatan", "lat": 57.699347, "lon": 11.956807, "price_sek_hr": 34.0, "price_text": "34 kr/tim 8-22 alla dagar. Övrig tid: 2 kr/tim P-förbud onsdagar klockan 02.00 - 07.00.", "type": "other", "source": "easypark", "operator": "Göteborgs stads parkeringsaktiebolag", "area_type_raw": "NPAL", "status": "ACTIVE"}, {"id": "ep_80200179", "name": "802 Arsenalsgatan", "lat": 57.701698, "lon": 11.958959, "price_sek_hr": 34.0, "price_text": "34 kr/tim 8-22 alla dagar. Övrig tid: 2 kr/tim P-förbud tisdagar klockan 08.00 - 10.00 udda veckor.", "type": "other", "source": "easypark", "operator": "Göteborgs stads parkeringsaktiebolag", "area_type_raw": "ON_STREET_POLYGON", "status": "ACTIVE"}, {"id": "ep_80201740", "name": "802 Arsenalsgatan", "lat": 57.701679, "lon": 11.95878, "price_sek_hr": 34.0, "price_text": "34 kr/tim 8-22 alla dagar. Övrig tid: 2 kr/tim", "type": "other", "source": "easypark", "operator": "Göteborgs stads parkeringsaktiebolag", "area_type_raw": "ON_STREET_POLYGON", "status": "ACTIVE"}, {"id": "ep_80201748", "name": "802 Arsenalsgatan", "lat": 57.702153, "lon": 11.957708, "price_sek_hr": 34.0, "price_text": "34 kr/tim 8-22 alla dagar. Övrig tid: 2 kr/tim", "type": "other", "source": "easypark", "operator": "Göteborgs stads parkeringsaktiebolag", "area_type_raw": "ON_STREET_POLYGON", "status": "ACTIVE"}, {"id": "ep_80201747", "name": "802 Arsenalsgatan", "lat": 57.701983, "lon": 11.95768, "price_sek_hr": 34.0, "price_text": "34 kr/tim 8-22 alla dagar. Övrig tid: 2 kr/tim P-förbud tisdagar klockan 08.00 - 10.00 udda veckor.", "type": "other", "source": "easypark", "operator": "Göteborgs stads parkeringsaktiebolag", "area_type_raw": "NPAL", "status": "ACTIVE"}, {"id": "ep_80200684", "name": "802 Barnhusgatan", "lat": 57.700458, "lon": 11.95605, "price_sek_hr": 34.0, "price_text": "34 kr/tim 8-22 alla dagar. Övrig tid: 2 kr/tim P-förbud tisdagar klockan 02.00 - 07.00.", "type": "other", "source": "easypark", "operator": "Göteborgs stads parkeringsaktiebolag", "area_type_raw": "NPAL", "status": "ACTIVE"}, {"id": "ep_80201176", "name": "802 Barnhusgatan", "lat": 57.709469, "lon": 11.980469, "price_sek_hr": 34.0, "price_text": "34 kr/tim 8-22 alla dagar. Övrig tid: 2 kr/tim", "type": "other", "source": "easypark", "operator": "Göteborgs stads parkeringsaktiebolag", "area_type_raw": "ON_STREET_POLYGON", "status": "ACTIVE"}, {"id": "ep_80200689", "name": "802 Barnhusgatan", "lat": 57.708282, "lon": 11.980522, "price_sek_hr": 34.0, "price_text": "34 kr/tim 8-22 alla dagar. Övrig tid: 2 kr/tim P-förbud fredagar klockan 02.00 - 07.00 jämna veckor.", "type": "other", "source": "easypark", "operator": "Göteborgs stads parkeringsaktiebolag", "area_type_raw": "NPAL", "status": "ACTIVE"}, {"id": "ep_80201946", "name": "802 Brogatan", "lat": 57.701325, "lon": 11.955415, "price_sek_hr": 34.0, "price_text": "34 kr/tim 8-22 alla dagar. Övrig tid: 2 kr/tim", "type": "other", "source": "easypark", "operator": "Göteborgs stads parkeringsaktiebolag", "area_type_raw": "ON_STREET_POLYGON", "status": "ACTIVE"}, {"id": "ep_80201931", "name": "802 Burggrevegatan", "lat": 57.709505, "lon": 11.979681, "price_sek_hr": 34.0, "price_text": "34 kr/tim 8-22 alla dagar. Övrig tid: 2 kr/tim P-förbud tisdagar klockan 02.00 - 07.00.", "type": "other", "source": "easypark", "operator": "Göteborgs stads parkeringsaktiebolag", "area_type_raw": "ON_STREET_POLYGON", "status": "ACTIVE"}, {"id": "ep_80200712", "name": "802 Eva Rodhes Gata", "lat": 57.707824, "lon": 11.979436, "price_sek_hr": 34.0, "price_text": "34 kr/tim 8-22 alla dagar. Övrig tid: 2 kr/tim", "type": "other", "source": "easypark", "operator": "Göteborgs stads parkeringsaktiebolag", "area_type_raw": "NPAL", "status": "ACTIVE"}, {"id": "ep_80200691", "name": "802 Färgaregatan", "lat": 57.708358, "lon": 11.982942, "price_sek_hr": 34.0, "price_text": "34 kr/tim 8-22 alla dagar. Övrig tid: 2 kr/tim P-förbud fredagar klockan 02.00 - 07.00 jämna veckor.", "type": "other", "source": "easypark", "operator": "Göteborgs stads parkeringsaktiebolag", "area_type_raw": "NPAL", "status": "ACTIVE"}, {"id": "ep_80201525", "name": "802 Färgaregatan", "lat": 57.708338, "lon": 11.983037, "price_sek_hr": 34.0, "price_text": "34 kr/tim 8-22 alla dagar. Övrig tid: 2 kr/tim P-förbud fredagar klockan 02.00 - 07.00 jämna veckor.", "type": "other", "source": "easypark", "operator": "Göteborgs stads parkeringsaktiebolag", "area_type_raw": "NPAL", "status": "ACTIVE"}, {"id": "ep_80203022", "name": "802 Haga Östergata", "lat": 57.699287, "lon": 11.955027, "price_sek_hr": 34.0, "price_text": "34 kr/tim 8-22 alla dagar. Övrig tid: 2 kr/tim", "type": "other", "source": "easypark", "operator": "Göteborgs stads parkeringsaktiebolag", "area_type_raw": "NPAL", "status": "ACTIVE"}, {"id": "ep_80200196", "name": "802 Hvitfeldtsgatan", "lat": 57.702432, "lon": 11.958926, "price_sek_hr": 34.0, "price_text": "34 kr/tim 8-22 alla dagar. Övrig tid: 2 kr/tim P-förbud tisdagar klockan 08.00 - 10.00 udda veckor.", "type": "other", "source": "easypark", "operator": "Göteborgs stads parkeringsaktiebolag", "area_type_raw": "ON_STREET_POLYGON", "status": "ACTIVE"}, {"id": "ep_80201529", "name": "802 Kapellgatan", "lat": 57.693887, "lon": 11.972108, "price_sek_hr": 34.0, "price_text": "34 kr/tim 8-22 alla dagar. Övrig tid: 2 kr/tim", "type": "other", "source": "easypark", "operator": "Göteborgs stads parkeringsaktiebolag", "area_type_raw": "NPAL", "status": "ACTIVE"}, {"id": "ep_80200672", "name": "802 Kapellplatsen", "lat": 57.693407, "lon": 11.970227, "price_sek_hr": 34.0, "price_text": "34 kr/tim 8-22 alla dagar. Övrig tid: 2 kr/tim P-förbud onsdagar klockan 02.00 - 07.00.", "type": "other", "source": "easypark", "operator": "Göteborgs stads parkeringsaktiebolag", "area_type_raw": "ON_STREET_POLYGON", "status": "ACTIVE"}, {"id": "ep_80200656", "name": "802 Kronhusgatan", "lat": 57.707968, "lon": 11.963423, "price_sek_hr": 34.0, "price_text": "34 kr/tim 8-22 alla dagar. Övrig tid: 2 kr/tim P-förbud måndagar klockan 08.00 - 10.00 udda veckor.", "type": "other", "source": "easypark", "operator": "Göteborgs stads parkeringsaktiebolag", "area_type_raw": "ON_STREET_POLYGON", "status": "ACTIVE"}, {"id": "ep_80200239", "name": "802 Kronhusgatan", "lat": 57.708181, "lon": 11.96473, "price_sek_hr": 34.0, "price_text": "34 kr/tim 8-22 alla dagar. Övrig tid: 2 kr/tim P-förbud måndagar klockan 08.00 - 10.00 udda veckor.", "type": "other", "source": "easypark", "operator": "Göteborgs stads parkeringsaktiebolag", "area_type_raw": "ON_STREET_POLYGON", "status": "ACTIVE"}, {"id": "ep_80200238", "name": "802 Kronhusgatan", "lat": 57.70786, "lon": 11.963087, "price_sek_hr": 34.0, "price_text": "34 kr/tim 8-22 alla dagar. Övrig tid: 2 kr/tim P-förbud måndagar klockan 08.00 - 10.00 udda veckor.", "type": "other", "source": "easypark", "operator": "Göteborgs stads parkeringsaktiebolag", "area_type_raw": "ON_STREET_POLYGON", "status": "ACTIVE"}, {"id": "ep_80203010", "name": "802 Kungshöjdsgatan", "lat": 57.702094, "lon": 11.960088, "price_sek_hr": 34.0, "price_text": "34 kr/tim 8-22 alla dagar. Övrig tid: 2 kr/tim P-förbud tisdagar klockan 08.00 - 10.00 udda veckor.", "type": "other", "source": "easypark", "operator": "Göteborgs stads parkeringsaktiebolag", "area_type_raw": "ON_STREET_POLYGON", "status": "ACTIVE"}, {"id": "ep_80200200", "name": "802 Kungshöjdsgatan", "lat": 57.70288, "lon": 11.959877, "price_sek_hr": 34.0, "price_text": "34 kr/tim 8-22 alla dagar. Övrig tid: 2 kr/tim P-förbud tisdagar klockan 08.00 - 10.00 udda veckor.", "type": "other", "source": "easypark", "operator": "Göteborgs stads parkeringsaktiebolag", "area_type_raw": "ON_STREET_POLYGON", "status": "ACTIVE"}, {"id": "ep_80202689", "name": "802 Kvarnbergsgatan", "lat": 57.708849, "lon": 11.963446, "price_sek_hr": 34.0, "price_text": "34 kr/tim 8-22 alla dagar. Övrig tid: 2 kr/tim", "type": "other", "source": "easypark", "operator": "Göteborgs stads parkeringsaktiebolag", "area_type_raw": "ON_STREET_POLYGON", "status": "ACTIVE"}, {"id": "ep_80200189", "name": "802 Köpmansgatan", "lat": 57.706859, "lon": 11.963183, "price_sek_hr": 34.0, "price_text": "34 kr/tim 8-22 alla dagar. Övrig tid: 2 kr/tim P-förbud måndagar klockan 08.00 - 10.00 udda veckor.", "type": "other", "source": "easypark", "operator": "Göteborgs stads parkeringsaktiebolag", "area_type_raw": "ON_STREET_POLYGON", "status": "ACTIVE"}, {"id": "ep_80202159", "name": "802 Landalagatan", "lat": 57.693018, "lon": 11.969929, "price_sek_hr": 34.0, "price_text": "34 kr/tim 8-22 alla dagar. Övrig tid: 2 kr/tim P-förbud onsdagar klockan 02.00 - 07.00.", "type": "other", "source": "easypark", "operator": "Göteborgs stads parkeringsaktiebolag", "area_type_raw": "ON_STREET_POLYGON", "status": "ACTIVE"}, {"id": "ep_80201182", "name": "802 Landsvägsgatan", "lat": 57.697658, "lon": 11.952507, "price_sek_hr": 34.0, "price_text": "34 kr/tim 8-22 alla dagar. Övrig tid: 2 kr/tim", "type": "other", "source": "easypark", "operator": "Göteborgs stads parkeringsaktiebolag", "area_type_raw": "NPAL", "status": "ACTIVE"}, {"id": "ep_80202999", "name": "802 Mellangatan", "lat": 57.699765, "lon": 11.954535, "price_sek_hr": 34.0, "price_text": "34 kr/tim 8-22 alla dagar. Övrig tid: 2 kr/tim", "type": "other", "source": "easypark", "operator": "Göteborgs stads parkeringsaktiebolag", "area_type_raw": "NPAL", "status": "ACTIVE"}, {"id": "ep_80202690", "name": "802 Mjölnaregatan", "lat": 57.70914, "lon": 11.963196, "price_sek_hr": 34.0, "price_text": "34 kr/tim 8-22 alla dagar. Övrig tid: 2 kr/tim", "type": "other", "source": "easypark", "operator": "Göteborgs stads parkeringsaktiebolag", "area_type_raw": "ON_STREET_POLYGON", "status": "ACTIVE"}, {"id": "ep_80200125", "name": "802 Norra Allégatan", "lat": 57.700249, "lon": 11.955552, "price_sek_hr": 34.0, "price_text": "34 kr/tim 8-22 alla dagar. Övrig tid: 2 kr/tim", "type": "other", "source": "easypark", "operator": "Göteborgs stads parkeringsaktiebolag", "area_type_raw": "ON_STREET_POLYGON", "status": "ACTIVE"}, {"id": "ep_80201770", "name": "802 Norra Liden", "lat": 57.704534, "lon": 11.958498, "price_sek_hr": 34.0, "price_text": "34 kr/tim 8-22 alla dagar. Övrig tid: 2 kr/tim", "type": "other", "source": "easypark", "operator": "Göteborgs stads parkeringsaktiebolag", "area_type_raw": "ON_STREET_POLYGON", "status": "ACTIVE"}, {"id": "ep_80200145", "name": "802 Norra Liden", "lat": 57.704164, "lon": 11.957977, "price_sek_hr": 34.0, "price_text": "34 kr/tim 8-22 alla dagar. Övrig tid: 2 kr/tim P-förbud fredagar klockan 08.00 - 10.00 jämna veckor.", "type": "other", "source": "easypark", "operator": "Göteborgs stads parkeringsaktiebolag", "area_type_raw": "ON_STREET_POLYGON", "status": "ACTIVE"}, {"id": "ep_80201752", "name": "802 Otterhällegatan", "lat": 57.703731, "lon": 11.959906, "price_sek_hr": 34.0, "price_text": "34 kr/tim 8-22 alla dagar. Övrig tid: 2 kr/tim P-förbud fredagar klockan 08.00 - 10.00 jämna veckor.", "type": "other", "source": "easypark", "operator": "Göteborgs stads parkeringsaktiebolag", "area_type_raw": "NPAL", "status": "ACTIVE"}, {"id": "ep_80200185", "name": "802 Otterhällegatan", "lat": 57.703826, "lon": 11.959944, "price_sek_hr": 34.0, "price_text": "34 kr/tim 8-22 alla dagar. Övrig tid: 2 kr/tim P-förbud fredagar klockan 08.00 - 10.00 jämna veckor.", "type": "other", "source": "easypark", "operator": "Göteborgs stads parkeringsaktiebolag", "area_type_raw": "NPAL", "status": "ACTIVE"}, {"id": "ep_80201274", "name": "802 Packhusplatsen", "lat": 57.706851, "lon": 11.960749, "price_sek_hr": 34.0, "price_text": "34 kr/tim 8-22 alla dagar. Övrig tid: 2 kr/tim P-förbud tisdagar klockan 08.00 - 10.00 udda veckor.", "type": "other", "source": "easypark", "operator": "Göteborgs stads parkeringsaktiebolag", "area_type_raw": "NPAL", "status": "ACTIVE"}, {"id": "ep_80200678", "name": "802 Per Dubbsgatan", "lat": 57.683652, "lon": 11.957271, "price_sek_hr": 34.0, "price_text": "34 kr/tim 8-22 alla dagar. Övrig tid: 2 kr/tim", "type": "other", "source": "easypark", "operator": "Göteborgs stads parkeringsaktiebolag", "area_type_raw": "ON_STREET_POLYGON", "status": "ACTIVE"}, {"id": "ep_80201934", "name": "802 Postgatan", "lat": 57.707193, "lon": 11.961608, "price_sek_hr": 34.0, "price_text": "34 kr/tim 8-22 alla dagar. Övrig tid: 2 kr/tim P-förbud tisdagar klockan 08.00 - 10.00 udda veckor.", "type": "other", "source": "easypark", "operator": "Göteborgs stads parkeringsaktiebolag", "area_type_raw": "ON_STREET_POLYGON", "status": "ACTIVE"}, {"id": "ep_80200133", "name": "802 Postgatan", "lat": 57.707152, "lon": 11.961749, "price_sek_hr": 34.0, "price_text": "34 kr/tim 8-22 alla dagar. Övrig tid: 2 kr/tim P-förbud tisdagar klockan 08.00 - 10.00 udda veckor.", "type": "other", "source": "easypark", "operator": "Göteborgs stads parkeringsaktiebolag", "area_type_raw": "ON_STREET_POLYGON", "status": "ACTIVE"}, {"id": "ep_80200683", "name": "802 Pusterviksgatan", "lat": 57.700964, "lon": 11.955027, "price_sek_hr": 34.0, "price_text": "34 kr/tim 8-22 alla dagar. Övrig tid: 2 kr/tim P-förbud torsdagar klockan 02.00 - 07.00.", "type": "other", "source": "easypark", "operator": "Göteborgs stads parkeringsaktiebolag", "area_type_raw": "NPAL", "status": "ACTIVE"}, {"id": "ep_80201861", "name": "802 Pusterviksgatan", "lat": 57.700619, "lon": 11.956857, "price_sek_hr": 34.0, "price_text": "34 kr/tim 8-22 alla dagar. Övrig tid: 2 kr/tim", "type": "other", "source": "easypark", "operator": "Göteborgs stads parkeringsaktiebolag", "area_type_raw": "ON_STREET_POLYGON", "status": "ACTIVE"}, {"id": "ep_80201962", "name": "802 Redbergsvägen", "lat": 57.714405, "lon": 11.997879, "price_sek_hr": 34.0, "price_text": "34 kr/tim 8-22 alla dagar. Övrig tid: 2 kr/tim P-förbud tisdagar klockan 02.00 - 10.00.", "type": "other", "source": "easypark", "operator": "Göteborgs stads parkeringsaktiebolag", "area_type_raw": "NPAL", "status": "ACTIVE"}, {"id": "ep_80200855", "name": "802 Redbergsvägen", "lat": 57.714647, "lon": 12.000282, "price_sek_hr": 34.0, "price_text": "34 kr/tim 8-22 alla dagar. Övrig tid: 2 kr/tim P-förbud tisdagar klockan 02.00 - 07.00.", "type": "other", "source": "easypark", "operator": "Göteborgs stads parkeringsaktiebolag", "area_type_raw": "ON_STREET_POLYGON", "status": "ACTIVE"}, {"id": "ep_80200340", "name": "802 Skeppsbron", "lat": 57.703882, "lon": 11.954898, "price_sek_hr": 34.0, "price_text": "34 kr/tim 8-22 alla dagar. Övrig tid: 2 kr/tim", "type": "other", "source": "easypark", "operator": "Göteborgs stads parkeringsaktiebolag", "area_type_raw": "NPAL", "status": "ACTIVE"}, {"id": "ep_80200342", "name": "802 Skeppsbron", "lat": 57.704112, "lon": 11.955147, "price_sek_hr": 34.0, "price_text": "34 kr/tim 8-22 alla dagar. Övrig tid: 2 kr/tim", "type": "other", "source": "easypark", "operator": "Göteborgs stads parkeringsaktiebolag", "area_type_raw": "NPAL", "status": "ACTIVE"}, {"id": "ep_80201805", "name": "802 Skeppsbron", "lat": 57.703737, "lon": 11.954945, "price_sek_hr": 34.0, "price_text": "34 kr/tim 8-22 alla dagar. Övrig tid: 2 kr/tim", "type": "other", "source": "easypark", "operator": "Göteborgs stads parkeringsaktiebolag", "area_type_raw": "NPAL", "status": "ACTIVE"}, {"id": "ep_80201806", "name": "802 Skeppsbron", "lat": 57.704261, "lon": 11.955493, "price_sek_hr": 34.0, "price_text": "34 kr/tim 8-22 alla dagar. Övrig tid: 2 kr/tim", "type": "other", "source": "easypark", "operator": "Göteborgs stads parkeringsaktiebolag", "area_type_raw": "ON_STREET_POLYGON", "status": "ACTIVE"}, {"id": "ep_80200242", "name": "802 Smedjegatan", "lat": 57.707484, "lon": 11.962193, "price_sek_hr": 34.0, "price_text": "34 kr/tim 8-22 alla dagar. Övrig tid: 2 kr/tim P-förbud tisdagar klockan 08.00 - 10.00 udda veckor.", "type": "other", "source": "easypark", "operator": "Göteborgs stads parkeringsaktiebolag", "area_type_raw": "ON_STREET_POLYGON", "status": "ACTIVE"}, {"id": "ep_80201783", "name": "802 Smedjegatan", "lat": 57.707951, "lon": 11.961928, "price_sek_hr": 34.0, "price_text": "34 kr/tim 8-22 alla dagar. Övrig tid: 2 kr/tim P-förbud tisdagar klockan 08.00 - 10.00 udda veckor.", "type": "other", "source": "easypark", "operator": "Göteborgs stads parkeringsaktiebolag", "area_type_raw": "ON_STREET_POLYGON", "status": "ACTIVE"}, {"id": "ep_80200696", "name": "802 Stampgatan", "lat": 57.707688, "lon": 11.983862, "price_sek_hr": 34.0, "price_text": "34 kr/tim 8-22 alla dagar. Övrig tid: 2 kr/tim P-förbud fredagar klockan 02.00 - 07.00 jämna veckor.", "type": "other", "source": "easypark", "operator": "Göteborgs stads parkeringsaktiebolag", "area_type_raw": "ON_STREET_POLYGON", "status": "ACTIVE"}, {"id": "ep_80200694", "name": "802 Stampgatan", "lat": 57.707675, "lon": 11.978692, "price_sek_hr": 34.0, "price_text": "34 kr/tim 8-22 alla dagar. Övrig tid: 2 kr/tim P-förbud fredagar klockan 02.00 - 07.00 jämna veckor.", "type": "other", "source": "easypark", "operator": "Göteborgs stads parkeringsaktiebolag", "area_type_raw": "ON_STREET_POLYGON", "status": "ACTIVE"}, {"id": "ep_80200693", "name": "802 Stampgatan", "lat": 57.707693, "lon": 11.98242, "price_sek_hr": 34.0, "price_text": "34 kr/tim 8-22 alla dagar. Övrig tid: 2 kr/tim P-förbud fredagar klockan 02.00 - 07.00 jämna veckor.", "type": "other", "source": "easypark", "operator": "Göteborgs stads parkeringsaktiebolag", "area_type_raw": "ON_STREET_POLYGON", "status": "ACTIVE"}, {"id": "ep_80201645", "name": "802 Stampgatan", "lat": 57.70979, "lon": 11.987951, "price_sek_hr": 34.0, "price_text": "34 kr/tim 8-22 alla dagar. Övrig tid: 2 kr/tim P-förbud tisdagar klockan 09.00 - 12.00 udda veckor.", "type": "other", "source": "easypark", "operator": "Göteborgs stads parkeringsaktiebolag", "area_type_raw": "NPAL", "status": "ACTIVE"}, {"id": "ep_80203125", "name": "802 Södra Allégatan", "lat": 57.699826, "lon": 11.955076, "price_sek_hr": 34.0, "price_text": "34 kr/tim 8-22 alla dagar. Övrig tid: 2 kr/tim P-förbud onsdagar klockan 02.00 - 07.00.", "type": "other", "source": "easypark", "operator": "Göteborgs stads parkeringsaktiebolag", "area_type_raw": "NPAL", "status": "ACTIVE"}, {"id": "ep_80200905", "name": "802 Tyggårdsgatan", "lat": 57.707185, "lon": 11.963657, "price_sek_hr": 34.0, "price_text": "34 kr/tim 8-22 alla dagar. Övrig tid: 2 kr/tim P-förbud måndagar klockan 08.00 - 10.00 udda veckor.", "type": "other", "source": "easypark", "operator": "Göteborgs stads parkeringsaktiebolag", "area_type_raw": "ON_STREET_POLYGON", "status": "ACTIVE"}, {"id": "ep_80203009", "name": "802 Västra Skansgatan", "lat": 57.699527, "lon": 11.955636, "price_sek_hr": 34.0, "price_text": "34 kr/tim 8-22 alla dagar. Övrig tid: 2 kr/tim", "type": "other", "source": "easypark", "operator": "Göteborgs stads parkeringsaktiebolag", "area_type_raw": "NPAL", "status": "ACTIVE"}, {"id": "ep_80202685", "name": "802 Övre Spannmålsgatan", "lat": 57.708793, "lon": 11.962837, "price_sek_hr": 34.0, "price_text": "34 kr/tim 8-22 alla dagar. Övrig tid: 2 kr/tim", "type": "other", "source": "easypark", "operator": "Göteborgs stads parkeringsaktiebolag", "area_type_raw": "ON_STREET_POLYGON", "status": "ACTIVE"}, {"id": "ep_80302742", "name": "803 Bohusgatan", "lat": 57.703915, "lon": 11.981909, "price_sek_hr": 24.0, "price_text": "24 kr/tim 8-22 alla dagar. Övrig tid: 2 kr/tim P-förbud måndagar klockan 08.00 - 10.00 jämna veckor.", "type": "other", "source": "easypark", "operator": "Göteborgs stads parkeringsaktiebolag", "area_type_raw": "ON_STREET_POLYGON", "status": "ACTIVE"}, {"id": "ep_80301240", "name": "803 Bältgatan", "lat": 57.711472, "lon": 11.991715, "price_sek_hr": 24.0, "price_text": "24 kr/tim 8-22 alla dagar. Övrig tid: 2 kr/tim P-förbud tisdagar klockan 09.00 - 12.00 udda veckor.", "type": "other", "source": "easypark", "operator": "Göteborgs stads parkeringsaktiebolag", "area_type_raw": "ON_STREET_POLYGON", "status": "ACTIVE"}, {"id": "ep_80300187", "name": "803 Lilla Stampgatan", "lat": 57.707646, "lon": 11.98824, "price_sek_hr": 24.0, "price_text": "24 kr/tim 8-22 alla dagar. Övrig tid: 2 kr/tim P-förbud tisdagar klockan 09.00 - 12.00 udda veckor.", "type": "other", "source": "easypark", "operator": "Göteborgs stads parkeringsaktiebolag", "area_type_raw": "ON_STREET_POLYGON", "status": "ACTIVE"}, {"id": "ep_80300188", "name": "803 Lilla Stampgatan", "lat": 57.707703, "lon": 11.986887, "price_sek_hr": 24.0, "price_text": "24 kr/tim 8-22 alla dagar. Övrig tid: 2 kr/tim P-förbud tisdagar klockan 09.00 - 12.00 udda veckor.", "type": "other", "source": "easypark", "operator": "Göteborgs stads parkeringsaktiebolag", "area_type_raw": "ON_STREET_POLYGON", "status": "ACTIVE"}, {"id": "ep_80302200", "name": "803 Monsungatan", "lat": 57.697204, "lon": 11.908085, "price_sek_hr": 24.0, "price_text": "24 kr/tim 8-22 alla dagar. Övrig tid: 2 kr/tim", "type": "other", "source": "easypark", "operator": "Göteborgs stads parkeringsaktiebolag", "area_type_raw": "ON_STREET_POLYGON", "status": "ACTIVE"}, {"id": "ep_80300569", "name": "803 Mölndalsvägen", "lat": 57.690762, "lon": 11.992861, "price_sek_hr": 24.0, "price_text": "24 kr/tim 8-22 alla dagar. Övrig tid: 2 kr/tim P-förbud fredagar klockan 02.00 - 07.00.", "type": "other", "source": "easypark", "operator": "Göteborgs stads parkeringsaktiebolag", "area_type_raw": "ON_STREET_POLYGON", "status": "ACTIVE"}, {"id": "ep_80303003", "name": "803 Mölndalsvägen", "lat": 57.690257, "lon": 11.993352, "price_sek_hr": 24.0, "price_text": "24 kr/tim 8-22 alla dagar. Övrig tid: 2 kr/tim P-förbud fredagar klockan 02.00 - 07.00.", "type": "other", "source": "easypark", "operator": "Göteborgs stads parkeringsaktiebolag", "area_type_raw": "ON_STREET_POLYGON", "status": "ACTIVE"}, {"id": "ep_80302708", "name": "803 Norra Ågatan", "lat": 57.71168, "lon": 11.992584, "price_sek_hr": 24.0, "price_text": "24 kr/tim 8-22 alla dagar. Övrig tid: 2 kr/tim", "type": "other", "source": "easypark", "operator": "Göteborgs stads parkeringsaktiebolag", "area_type_raw": "ON_STREET_POLYGON", "status": "ACTIVE"}, {"id": "ep_80301238", "name": "803 Norra Ågatan", "lat": 57.711177, "lon": 11.992182, "price_sek_hr": 24.0, "price_text": "24 kr/tim 8-22 alla dagar. Övrig tid: 2 kr/tim", "type": "other", "source": "easypark", "operator": "Göteborgs stads parkeringsaktiebolag", "area_type_raw": "ON_STREET_POLYGON", "status": "ACTIVE"}, {"id": "ep_80301237", "name": "803 Norra Ågatan", "lat": 57.711811, "lon": 11.993011, "price_sek_hr": 24.0, "price_text": "24 kr/tim 8-22 alla dagar. Övrig tid: 2 kr/tim P-förbud tisdagar klockan 09.00 - 12.00 udda veckor.", "type": "other", "source": "easypark", "operator": "Göteborgs stads parkeringsaktiebolag", "area_type_raw": "NPAL", "status": "ACTIVE"}, {"id": "ep_80301946", "name": "803 Nya Allén", "lat": 57.704306, "lon": 11.976034, "price_sek_hr": 24.0, "price_text": "24 kr/tim 8-22 alla dagar. Övrig tid: 2 kr/tim", "type": "other", "source": "easypark", "operator": "Göteborgs stads parkeringsaktiebolag", "area_type_raw": "NPAL", "status": "ACTIVE"}, {"id": "ep_80302004", "name": "803 Ranängsgatan", "lat": 57.71201, "lon": 11.992102, "price_sek_hr": 24.0, "price_text": "24 kr/tim 8-22 alla dagar. Övrig tid: 2 kr/tim", "type": "other", "source": "easypark", "operator": "Göteborgs stads parkeringsaktiebolag", "area_type_raw": "ON_STREET_POLYGON", "status": "ACTIVE"}, {"id": "ep_80302010", "name": "803 Ranängsgatan", "lat": 57.712019, "lon": 11.991935, "price_sek_hr": 24.0, "price_text": "24 kr/tim 8-22 alla dagar. Övrig tid: 2 kr/tim P-förbud tisdagar klockan 09.00 - 12.00 udda veckor.", "type": "other", "source": "easypark", "operator": "Göteborgs stads parkeringsaktiebolag", "area_type_raw": "ON_STREET_POLYGON", "status": "ACTIVE"}, {"id": "ep_80301088", "name": "803 Smålandsgatan", "lat": 57.704645, "lon": 11.981934, "price_sek_hr": 24.0, "price_text": "24 kr/tim 8-22 alla dagar. Övrig tid: 2 kr/tim P-förbud måndagar klockan 08.00 - 10.00 jämna veckor.", "type": "other", "source": "easypark", "operator": "Göteborgs stads parkeringsaktiebolag", "area_type_raw": "ON_STREET_POLYGON", "status": "ACTIVE"}, {"id": "ep_80300824", "name": "803 Smålandsgatan", "lat": 57.704718, "lon": 11.980848, "price_sek_hr": 24.0, "price_text": "24 kr/tim 8-22 alla dagar. Övrig tid: 2 kr/tim P-förbud måndagar klockan 08.00 - 10.00 jämna veckor.", "type": "other", "source": "easypark", "operator": "Göteborgs stads parkeringsaktiebolag", "area_type_raw": "ON_STREET_POLYGON", "status": "ACTIVE"}, {"id": "ep_80300828", "name": "803 Stureplatsen", "lat": 57.70437, "lon": 11.979286, "price_sek_hr": 24.0, "price_text": "24 kr/tim 8-22 alla dagar. Övrig tid: 2 kr/tim P-förbud måndagar klockan 08.00 - 10.00 jämna veckor.", "type": "other", "source": "easypark", "operator": "Göteborgs stads parkeringsaktiebolag", "area_type_raw": "ON_STREET_POLYGON", "status": "ACTIVE"}, {"id": "ep_80302000", "name": "803 Svingeln", "lat": 57.712111, "lon": 11.990258, "price_sek_hr": 24.0, "price_text": "24 kr/tim 8-22 alla dagar. Övrig tid: 2 kr/tim", "type": "other", "source": "easypark", "operator": "Göteborgs stads parkeringsaktiebolag", "area_type_raw": "ON_STREET_POLYGON", "status": "ACTIVE"}, {"id": "ep_80300832", "name": "803 Västgötagatan", "lat": 57.704134, "lon": 11.980734, "price_sek_hr": 24.0, "price_text": "24 kr/tim 8-22 alla dagar. Övrig tid: 2 kr/tim P-förbud måndagar klockan 08.00 - 10.00 jämna veckor.", "type": "other", "source": "easypark", "operator": "Göteborgs stads parkeringsaktiebolag", "area_type_raw": "ON_STREET_POLYGON", "status": "ACTIVE"}, {"id": "ep_80400669", "name": "804 Allmänna Vägen", "lat": 57.698202, "lon": 11.932722, "price_sek_hr": 24.0, "price_text": "24 kr/tim 8-22 alla dagar. Övrig tid: 2 kr/tim P-förbud onsdagar klockan 02.00 - 07.00 jämna veckor.", "type": "other", "source": "easypark", "operator": "Göteborgs stads parkeringsaktiebolag", "area_type_raw": "NPAL", "status": "ACTIVE"}, {"id": "ep_80400666", "name": "804 Allmänna Vägen", "lat": 57.69782, "lon": 11.931873, "price_sek_hr": 24.0, "price_text": "24 kr/tim 8-22 alla dagar. Övrig tid: 2 kr/tim P-förbud onsdagar klockan 02.00 - 07.00 jämna veckor.", "type": "other", "source": "easypark", "operator": "Göteborgs stads parkeringsaktiebolag", "area_type_raw": "NPAL", "status": "ACTIVE"}, {"id": "ep_80400668", "name": "804 Allmänna Vägen", "lat": 57.697814, "lon": 11.931981, "price_sek_hr": 24.0, "price_text": "24 kr/tim 8-22 alla dagar. Övrig tid: 2 kr/tim P-förbud onsdagar klockan 02.00 - 07.00 jämna veckor.", "type": "other", "source": "easypark", "operator": "Göteborgs stads parkeringsaktiebolag", "area_type_raw": "NPAL", "status": "ACTIVE"}, {"id": "ep_80401129", "name": "804 Amerikagatan", "lat": 57.699618, "lon": 11.934308, "price_sek_hr": 24.0, "price_text": "24 kr/tim 8-22 alla dagar. Övrig tid: 2 kr/tim", "type": "other", "source": "easypark", "operator": "Göteborgs stads parkeringsaktiebolag", "area_type_raw": "NPAL", "status": "ACTIVE"}, {"id": "ep_80403080", "name": "804 Danska Vägen", "lat": 57.714805, "lon": 12.004694, "price_sek_hr": 24.0, "price_text": "24 kr/tim 8-22 alla dagar. Övrig tid: 2 kr/tim P-förbud tisdagar klockan 02.00 - 07.00 jämna veckor.", "type": "other", "source": "easypark", "operator": "Göteborgs stads parkeringsaktiebolag", "area_type_raw": "NPAL", "status": "ACTIVE"}, {"id": "ep_80403037", "name": "804 Erik Dahlbergsgatan", "lat": 57.695037, "lon": 11.97099, "price_sek_hr": 24.0, "price_text": "24 kr/tim 8-22 alla dagar. Övrig tid: 2 kr/tim", "type": "other", "source": "easypark", "operator": "Göteborgs stads parkeringsaktiebolag", "area_type_raw": "ON_STREET_POLYGON", "status": "ACTIVE"}, {"id": "ep_80401764", "name": "804 Erik Dahlbergsgatan", "lat": 57.696259, "lon": 11.96968, "price_sek_hr": 24.0, "price_text": "24 kr/tim 8-22 alla dagar. Övrig tid: 2 kr/tim P-förbud onsdagar klockan 09.00 - 12.00 jämna veckor.", "type": "other", "source": "easypark", "operator": "Göteborgs stads parkeringsaktiebolag", "area_type_raw": "ON_STREET_POLYGON", "status": "ACTIVE"}, {"id": "ep_80401487", "name": "804 Erik Dahlbergsgatan", "lat": 57.69454, "lon": 11.971133, "price_sek_hr": 24.0, "price_text": "24 kr/tim 8-22 alla dagar. Övrig tid: 2 kr/tim P-förbud onsdagar klockan 09.00 - 12.00 och jämna veckor.", "type": "other", "source": "easypark", "operator": "Göteborgs stads parkeringsaktiebolag", "area_type_raw": "ON_STREET_POLYGON", "status": "ACTIVE"}, {"id": "ep_80400294", "name": "804 Erik Dahlbergsgatan", "lat": 57.69672, "lon": 11.9693, "price_sek_hr": 24.0, "price_text": "24 kr/tim 8-22 alla dagar. Övrig tid: 2 kr/tim P-förbud onsdagar klockan 09.00 - 12.00 jämna veckor.", "type": "other", "source": "easypark", "operator": "Göteborgs stads parkeringsaktiebolag", "area_type_raw": "ON_STREET_POLYGON", "status": "ACTIVE"}, {"id": "ep_80401164", "name": "804 Folke Bernadottes Gata", "lat": 57.694871, "lon": 11.962415, "price_sek_hr": 24.0, "price_text": "24 kr/tim 8-22 alla dagar. Övrig tid: 2 kr/tim P-förbud onsdagar klockan 09.00 - 12.00 jämna veckor.", "type": "other", "source": "easypark", "operator": "Göteborgs stads parkeringsaktiebolag", "area_type_raw": "NPAL", "status": "ACTIVE"}, {"id": "ep_80400496", "name": "804 Föreningsgatan", "lat": 57.696473, "lon": 11.970649, "price_sek_hr": 24.0, "price_text": "24 kr/tim 8-22 alla dagar. Övrig tid: 2 kr/tim", "type": "other", "source": "easypark", "operator": "Göteborgs stads parkeringsaktiebolag", "area_type_raw": "ON_STREET_POLYGON", "status": "ACTIVE"}, {"id": "ep_80401037", "name": "804 Föreningsgatan", "lat": 57.696328, "lon": 11.970539, "price_sek_hr": 24.0, "price_text": "24 kr/tim 8-22 alla dagar. Övrig tid: 2 kr/tim P-förbud onsdagar klockan 09.00 - 12.00 jämna veckor.", "type": "other", "source": "easypark", "operator": "Göteborgs stads parkeringsaktiebolag", "area_type_raw": "ON_STREET_POLYGON", "status": "ACTIVE"}, {"id": "ep_80400898", "name": "804 Föreningsgatan", "lat": 57.694893, "lon": 11.964506, "price_sek_hr": 24.0, "price_text": "24 kr/tim 8-22 alla dagar. Övrig tid: 2 kr/tim P-förbud onsdagar klockan 09.00 - 12.00 jämna veckor.", "type": "other", "source": "easypark", "operator": "Göteborgs stads parkeringsaktiebolag", "area_type_raw": "ON_STREET_POLYGON", "status": "ACTIVE"},